[
  {
    "id": "osm_node_948325227",
    "osm_id": 948325227,
    "osm_type": "node",
    "amenity": "atm",
    "bank": "Techcombank",
    "name": "Techcombank",
    "address": "Techcombank, Hai Bà Trưng, Phường Ninh Kiều, Thành phố Cần Thơ, 94111, Việt Nam",
    "district": "Phường Ninh Kiều",
    "lat": 10.0358311,
    "lng": 105.7893177,
    "opening_hours": null,
    "source": "nominatim"
  },
  {
    "id": "osm_node_948325230",
    "osm_id": 948325230,
    "osm_type": "node",
    "amenity": "bank",
    "bank": "VPBank",
    "name": "VPBank",
    "address": "VPBank, Cách Mạng Tháng 8, Bình Thủy, Phường Bình Thủy, Thành phố Cần Thơ, 94108, Việt Nam",
    "district": "Phường Bình Thủy",
    "lat": 10.0570452,
    "lng": 105.7690503,
    "opening_hours": null,
    "source": "nominatim"
  },
  {
    "id": "osm_node_948325254",
    "osm_id": 948325254,
    "osm_type": "node",
    "amenity": "bank",
    "bank": "Maritime Bank",
    "name": "Maritime Bank",
    "address": "304 Đ. Cách Mạng Tháng 8, Bùi Hữu Nghĩa, Bình Thủy, Cần Thơ 900000, Việt Nam",
    "district": "Phường Bình Thủy",
    "lat": 10.06406360954536,
    "lng": 105.76486364537969,
    "opening_hours": null,
    "source": "nominatim"
  },
  {
    "id": "osm_node_948325262",
    "osm_id": 948325262,
    "osm_type": "node",
    "amenity": "bank",
    "bank": "VPB",
    "name": "ATM VPBANK ATM CONG TY MAY VIET THANH KCNCAISON,HANGBANG,KV",
    "address": "4, An Bình, Ninh Kiều, Cần Thơ, Việt Nam",
    "district": "Phường Ninh Kiều",
    "lat": 10.019935876106201,
    "lng": 105.74194122883044,
    "opening_hours": null,
    "source": "tags+overpass"
  },
  {
    "id": "osm_node_948325270",
    "osm_id": 948325270,
    "osm_type": "node",
    "amenity": "bank",
    "bank": "VietinBank",
    "name": "Vietinbank Cần Thơ",
    "address": "59-59A Phan Đình Phùng, Tân An, Ninh Kiều, Cần Thơ, Việt Nam",
    "district": "Phường Bình Thủy",
    "lat": 10.032285477495785,
    "lng": 105.78681475573418,
    "opening_hours": null,
    "source": "nominatim"
  },
  {
    "id": "osm_node_948325305",
    "osm_id": 948325305,
    "osm_type": "node",
    "amenity": "atm",
    "bank": "Bank for Investment and Developmennt of Viet Nam",
    "name": "Bank for Investment and Developmennt of Viet Nam",
    "address": "Lê Hồng Phong, Bình Thủy, Phường Bình Thủy, Thành phố Cần Thơ, 94108, Việt Nam",
    "district": "Phường Bình Thủy",
    "lat": 10.0784862,
    "lng": 105.7453061,
    "opening_hours": null,
    "source": "nominatim"
  },
  {
    "id": "osm_node_948325307",
    "osm_id": 948325307,
    "osm_type": "node",
    "amenity": "bank",
    "bank": "VietinBank",
    "name": "VietinBank",
    "address": "VietinBank, Nguyễn Trãi, Phường Cái Khế, Thành phố Cần Thơ, 94111, Việt Nam",
    "district": "Phường Cái Khế",
    "lat": 10.0435471,
    "lng": 105.7822092,
    "opening_hours": null,
    "source": "nominatim"
  },
  {
    "id": "osm_node_948325310",
    "osm_id": 948325310,
    "osm_type": "node",
    "amenity": "bank",
    "bank": "Vietcombank",
    "name": "Vietcombank",
    "address": "34-36 Võ Văn Kiệt, An Hoà, Ninh Kiều, Cần Thơ, Việt Nam",
    "district": "Phường Ninh Kiều",
    "lat": 10.045338309437309,
    "lng": 105.76422607485405,
    "opening_hours": "Thứ Sáu 08:00–16:00, Thứ Bảy Đóng cửa, Chủ Nhật Đóng cửa, Thứ Hai 08:00–16:00, Thứ Ba 08:00–16:00, Thứ Tư 08:00–16:00, Thứ Năm 08:00–16:00",
    "source": "nominatim"
  },
  {
    "id": "osm_node_948325321",
    "osm_id": 948325321,
    "osm_type": "node",
    "amenity": "atm",
    "bank": "VietinBank",
    "name": "VietinBank",
    "address": " 278 QL1A, Lê Bình, Cái Răng, Cần Thơ, Việt Nam",
    "district": "Phường Cái Răng",
    "lat": 9.992508566084418,
    "lng": 105.74891474662147,
    "opening_hours": null,
    "source": "nominatim"
  },
  {
    "id": "osm_node_948325323",
    "osm_id": 948325323,
    "osm_type": "node",
    "amenity": "atm",
    "bank": "Vietcombank",
    "name": "Ngân Hàng Tmcp Ngoại Thương Việt Nam (Vietcombank) - Pgd Ninh Kiều",
    "address": "103 Đường A1, Tân An, Ninh Kiều, Cần Thơ, Việt Nam",
    "district": "Phường Ninh Kiều",
    "lat": 10.044783536348481,
    "lng": 105.78310897422764,
    "opening_hours": null,
    "source": "nominatim"
  },
  {
    "id": "osm_node_948325355",
    "osm_id": 948325355,
    "osm_type": "node",
    "amenity": "atm",
    "bank": "PG Bank",
    "name": "PGBANK Ninh Kiều -PGBANK Nguyễn Văn Cừ",
    "address": "243k Đ. Nguyễn Văn Cừ, An Hoà, Ninh Kiều, Cần Thơ, Việt Nam",
    "district": " Ninh Kiều",
    "lat": 10.047715000130744,
    "lng": 105.76881025749854,
    "opening_hours": "Thứ Sáu,07:30–17:00 Thứ Năm,07:30–17:00 Thứ Tư,07:30–17:00 Thứ Ba,07:30–17:00 Thứ Hai,07:30–17:00 Chủ Nhật,07:30–12:00 Thứ Bảy,07:30–12:00",
    "source": "nominatim"
  },
  {
    "id": "osm_node_948325374",
    "osm_id": 948325374,
    "osm_type": "node",
    "amenity": "atm",
    "bank": "Agribank",
    "name": "Agribank",
    "address": "Lê Hồng Phong, Bình Thủy, Phường Bình Thủy, Thành phố Cần Thơ, 94108, Việt Nam",
    "district": "Phường Bình Thủy",
    "lat": 10.0801345,
    "lng": 105.7421532,
    "opening_hours": null,
    "source": "nominatim"
  },
  {
    "id": "osm_node_948325382",
    "osm_id": 948325382,
    "osm_type": "node",
    "amenity": "atm",
    "bank": "Vietbank",
    "name": "Vietbank - PGD Ninh Kiều",
    "address": "84 đường 3 Tháng 2, Phường Xuân Khánh, Quận Ninh Kiều, Cần Thơ, 270000, Việt Nam",
    "district": "Phường Ninh Kiều",
    "lat": 10.03085762048317,
    "lng": 105.77283701887208,
    "opening_hours": null,
    "source": "nominatim"
  },
  {
    "id": "osm_node_951963062",
    "osm_id": 951963062,
    "osm_type": "node",
    "amenity": "bank",
    "bank": "SCB",
    "name": "Scb - Atm",
    "address": "165 QL1A, Lê Bình, Cái Răng, Cần Thơ, Việt Nam",
    "district": "Cái Răng",
    "lat": 10.001063884717611,
    "lng": 105.75030363496475,
    "opening_hours": null,
    "source": "tags+overpass"
  },
  {
    "id": "osm_node_951963114",
    "osm_id": 951963114,
    "osm_type": "node",
    "amenity": "bank",
    "bank": "VDB",
    "name": "Ngân hàng Vietinbank PGD Cờ Đỏ",
    "address": "3CVJ+674, Hà Huy Giáp, TT. Cờ Đỏ, Cờ Đỏ, Cần Thơ, Việt Nam",
    "district": "Cờ Đỏ",
    "lat": 10.093085266229558,
    "lng": 105.43065788774334,
    "opening_hours": null,
    "source": "tags+overpass"
  },
  {
    "id": "osm_node_951963167",
    "osm_id": 951963167,
    "osm_type": "node",
    "amenity": "bank",
    "bank": "ATM Vietinbank",
    "name": "ATM Vietinbank",
    "address": "2P8Q+V9F, An Bình, Ninh Kiều, Cần Thơ, Việt Nam",
    "district": "Phường Ninh Kiều",
    "lat": 10.017192365281403,
    "lng": 105.73844009386026,
    "opening_hours": null,
    "source": "tags+overpass"
  },
  {
    "id": "osm_node_951963172",
    "osm_id": 951963172,
    "osm_type": "node",
    "amenity": "bank",
    "bank": "ACB",
    "name": "ACB - PGD An Thới",
    "address": "322B Đ. Cách Mạng Tháng 8, Bùi Hữu Nghĩa, Bình Thủy, Cần Thơ 900000, Việt Nam",
    "district": "Bình Thủy",
    "lat": 10.06288632538817,
    "lng": 105.76387281499706,
    "opening_hours": "Thứ Sáu 07:30–16:30, Thứ Bảy 07:30–11:30, Chủ Nhật Đóng cửa, Thứ Hai 07:30–16:30, Thứ Ba 07:30–16:30, Thứ Tư 07:30–16:30, Thứ Năm 07:30–16:30",
    "source": "tags+overpass"
  },
  {
    "id": "osm_node_951963176",
    "osm_id": 951963176,
    "osm_type": "node",
    "amenity": "atm",
    "bank": "VietinBank",
    "name": "VietinBank",
    "address": "VietinBank, Phan Đình Phùng, Phường Ninh Kiều, Thành phố Cần Thơ, 94111, Việt Nam",
    "district": "Phường Ninh Kiều",
    "lat": 10.0320383,
    "lng": 105.7868669,
    "opening_hours": null,
    "source": "nominatim"
  },
  {
    "id": "osm_node_951963266",
    "osm_id": 951963266,
    "osm_type": "node",
    "amenity": "atm",
    "bank": "Southern Bank",
    "name": "Southern Bank",
    "address": "Hẻm 72 Phan Đình Phùng, Phường Ninh Kiều, Thành phố Cần Thơ, 94111, Việt Nam",
    "district": "Phường Ninh Kiều",
    "lat": 10.0306263,
    "lng": 105.7863194,
    "opening_hours": null,
    "source": "nominatim"
  },
  {
    "id": "osm_node_951963299",
    "osm_id": 951963299,
    "osm_type": "node",
    "amenity": "bank",
    "bank": "SCB Cần Thơ",
    "name": "SCB Cần Thơ - Ngân hàng TMCP Sài Gòn",
    "address": "217 Đ. 30 Tháng 4, Phường, Ninh Kiều, Cần Thơ 94000, Việt Nam",
    "district": "Phường Ninh Kiều",
    "lat": 10.025067103072246,
    "lng": 105.77355327690661,
    "opening_hours": "Thứ Sáu 08:00–12:00 13:00–16:30, Thứ Bảy Đóng cửa, Chủ Nhật Đóng cửa, Thứ Hai 08:00–12:00 13:00–16:30, Thứ Ba 08:00–12:00 13:00–16:30, Thứ Tư 08:00–12:00 13:00–16:30, Thứ Năm 08:00–12:00 13:00–16:30",
    "source": "tags+overpass"
  },
  {
    "id": "osm_node_951963317",
    "osm_id": 951963317,
    "osm_type": "node",
    "amenity": "atm",
    "bank": "VietinBank",
    "name": "Vietinbank Cn Tây Cần Thơ",
    "address": "326 Đ. 30 Tháng 4, Xuân Khánh, Ninh Kiều, Cần Thơ, Việt Nam",
    "district": "Phường Ninh Kiều",
    "lat": 10.023389484589595,
    "lng": 105.77187419982683,
    "opening_hours": null,
    "source": "nominatim"
  },
  {
    "id": "osm_node_951963351",
    "osm_id": 951963351,
    "osm_type": "node",
    "amenity": "atm",
    "bank": "DongA Bank",
    "name": "DongA Bank - Atm",
    "address": "2Q22+75W, QL1A, Lê Bình, Cái Răng, Cần Thơ, Việt Nam",
    "district": "Cái Răng",
    "lat": 10.00076485963048,
    "lng": 105.75044553325792,
    "opening_hours": null,
    "source": "nominatim"
  },
  {
    "id": "osm_node_951963425",
    "osm_id": 951963425,
    "osm_type": "node",
    "amenity": "bank",
    "bank": "ATM VIETINBANK",
    "name": "ATM VIETINBANK",
    "address": "2QMP+GWX, Đ. Ngô Quyền, Tân An, Ninh Kiều, Cần Thơ, Việt Nam",
    "district": "Phường Ninh Kiều",
    "lat": 10.033962085586033,
    "lng": 105.78740665644244,
    "opening_hours": null,
    "source": "tags+overpass"
  },
  {
    "id": "osm_node_1041862890",
    "osm_id": 1041862890,
    "osm_type": "node",
    "amenity": "bank",
    "bank": "Bac A Bank",
    "name": "Bac A Bank",
    "address": "Bac A Bank, Trần Văn Khéo, Phường Cái Khế, Thành phố Cần Thơ, 94111, Việt Nam",
    "district": "Phường Cái Khế",
    "lat": 10.0436423,
    "lng": 105.7833225,
    "opening_hours": null,
    "source": "nominatim"
  },
  {
    "id": "osm_node_1041863267",
    "osm_id": 1041863267,
    "osm_type": "node",
    "amenity": "bank",
    "bank": "SeABank",
    "name": "SeABank",
    "address": "61 Võ Văn Tần, Tân An, Ninh Kiều, Cần Thơ 900000, Việt Nam",
    "district": "Phường Cái Khế",
    "lat": 10.03244136478435,
    "lng": 105.78528639999458,
    "opening_hours": null,
    "source": "nominatim"
  },
  {
    "id": "osm_node_1041863733",
    "osm_id": 1041863733,
    "osm_type": "node",
    "amenity": "atm",
    "bank": "Techcombank",
    "name": "Techcombank",
    "address": "Techcombank, Xô Viết Nghệ Tĩnh, Ninh Kiều, Phường Ninh Kiều, Thành phố Cần Thơ, 94111, Việt Nam",
    "district": "Phường Ninh Kiều",
    "lat": 10.0385247,
    "lng": 105.783652,
    "opening_hours": null,
    "source": "nominatim"
  },
  {
    "id": "osm_node_1041863795",
    "osm_id": 1041863795,
    "osm_type": "node",
    "amenity": "atm",
    "bank": "SeABank",
    "name": "SeABank",
    "address": "SeABank, Trần Văn Khéo, Phường Cái Khế, Thành phố Cần Thơ, 94111, Việt Nam",
    "district": "Phường Cái Khế",
    "lat": 10.0441101,
    "lng": 105.7833575,
    "opening_hours": null,
    "source": "nominatim"
  },
  {
    "id": "osm_node_1041864040",
    "osm_id": 1041864040,
    "osm_type": "node",
    "amenity": "atm",
    "bank": "Mekong Housing Bank",
    "name": "Mekong Housing Bank",
    "address": "Phan Đình Phùng, Phường Ninh Kiều, Thành phố Cần Thơ, 94111, Việt Nam",
    "district": "Phường Ninh Kiều",
    "lat": 10.0349875,
    "lng": 105.7872339,
    "opening_hours": null,
    "source": "nominatim"
  },
  {
    "id": "osm_node_1041864064",
    "osm_id": 1041864064,
    "osm_type": "node",
    "amenity": "bank",
    "bank": "ATM Vietinbank",
    "name": "ATM Vietinbank",
    "address": "278 QL1A, Lê Bình, Cái Răng, Cần Thơ, Việt Nam",
    "district": "Cái Răng",
    "lat": 9.992508566084418,
    "lng": 105.74891474662147,
    "opening_hours": null,
    "source": "tags+overpass"
  },
  {
    "id": "osm_node_1043717274",
    "osm_id": 1043717274,
    "osm_type": "node",
    "amenity": "bank",
    "bank": "Techcombank",
    "name": "Techcombank",
    "address": "Tran Van Kheo",
    "district": "Phường Cái Khế",
    "lat": 10.0460571,
    "lng": 105.7862387,
    "opening_hours": null,
    "source": "tags+overpass"
  },
  {
    "id": "osm_node_1043717469",
    "osm_id": 1043717469,
    "osm_type": "node",
    "amenity": "bank",
    "bank": "VIB",
    "name": "Ngân hàng Quốc tế - VIB Ninh Kiều ",
    "address": "số 84Bis/3 Đ. Mậu Thân, Thới Bình, Ninh Kiều, Cần Thơ, Việt Nam",
    "district": " Ninh Kiều",
    "lat": 10.0449962,
    "lng": 105.784566,
    "opening_hours": null,
    "source": "tags+overpass"
  },
  {
    "id": "osm_node_1043717496",
    "osm_id": 1043717496,
    "osm_type": "node",
    "amenity": "atm",
    "bank": "DongA Bank",
    "name": "DongA Bank",
    "address": "Ngô Hữu Hạnh, Phường Ninh Kiều, Thành phố Cần Thơ, 94111, Việt Nam",
    "district": "Phường Ninh Kiều",
    "lat": 10.0355186,
    "lng": 105.7879033,
    "opening_hours": null,
    "source": "nominatim"
  },
  {
    "id": "osm_node_1043717543",
    "osm_id": 1043717543,
    "osm_type": "node",
    "amenity": "atm",
    "bank": "Techcombank",
    "name": "Techcombank",
    "address": "Techcombank, Trần Văn Khéo, Phường Cái Khế, Thành phố Cần Thơ, 94111, Việt Nam",
    "district": "Phường Cái Khế",
    "lat": 10.0459995,
    "lng": 105.7861238,
    "opening_hours": null,
    "source": "nominatim"
  },
  {
    "id": "osm_node_1043717621",
    "osm_id": 1043717621,
    "osm_type": "node",
    "amenity": "bank",
    "bank": "ATM SCB",
    "name": "ATM SCB",
    "address": "Ninh Kiều Đường Phan Đình Phùng, Tân An, Ninh Kiều, Cần Thơ",
    "district": "Phường Ninh Kiều",
    "lat": 10.032066904885848,
    "lng": 105.78730924662148,
    "opening_hours": null,
    "source": "tags+overpass"
  },
  {
    "id": "osm_node_1043717765",
    "osm_id": 1043717765,
    "osm_type": "node",
    "amenity": "atm",
    "bank": "Sacombank",
    "name": "Sacombank",
    "address": "38D Đ. Nguyễn Văn Cừ, Cái Khế, Ninh Kiều, Cần Thơ, Việt Nam",
    "district": "Phường Cái Khế",
    "lat": 10.057640506189697,
    "lng": 105.77941667668111,
    "opening_hours": null,
    "source": "tags+overpass"
  },
  {
    "id": "osm_node_1043718134",
    "osm_id": 1043718134,
    "osm_type": "node",
    "amenity": "bank",
    "bank": "Sacombank",
    "name": "Sacombank",
    "address": "95-97-99 Võ Văn Tần, Tân An, Ninh Kiều, Cần Thơ, Việt Nam",
    "district": "Phường Ninh Kiều",
    "lat": 10.032711085307458,
    "lng": 105.78408460668271,
    "opening_hours": "Thứ Bảy Đóng cửa, Chủ Nhật Đóng cửa, Thứ Hai 07:30–11:3013:00–17:00, Thứ Ba 07:30–11:30 13:00–17:00, Thứ Tư 07:30–11:30 13:00–17:00, Thứ Năm 07:30–11:30 13:00–17:00, Thứ Sáu 07:30–11:30 13:00–17:00",
    "source": "tags+overpass"
  },
  {
    "id": "osm_node_1043858438",
    "osm_id": 1043858438,
    "osm_type": "node",
    "amenity": "atm",
    "bank": "BIDV",
    "name": "CN TP Cần Thơ - Ngân hàng TMCP Đầu tư & Phát triển Việt Nam (BIDV)",
    "address": "12 Đ. Hoà Bình, Tân An, Ninh Kiều, Cần Thơ 900000, Việt Nam",
    "district": "Phường Ninh Kiều",
    "lat": 10.034665841279814,
    "lng": 105.78496439991342,
    "opening_hours": "Thứ Sáu,08:00–11:30,13:00–16:30 Thứ Năm,08:00–11:30,13:00–16:30 Thứ Tư,08:00–11:30,13:00–16:30 Thứ Ba,08:00–11:30,13:00–16:30 Thứ Hai,08:00–11:30,13:00–16:30 Chủ Nhật,Đóng cửa Thứ Bảy,Đóng cửa",
    "source": "nominatim"
  },
  {
    "id": "osm_node_1043858615",
    "osm_id": 1043858615,
    "osm_type": "node",
    "amenity": "atm",
    "bank": "Vikki Bank",
    "name": "Vikki Bank - Chi nhánh Cần Thơ",
    "address": "20 Đường Nguyễn An Ninh, Tân An, Ninh Kiều, Cần Thơ, Việt Nam",
    "district": "Phường Ninh Kiều",
    "lat": 10.031589007401287,
    "lng": 105.78735131675244,
    "opening_hours": null,
    "source": "nominatim"
  },
  {
    "id": "osm_node_1043858622",
    "osm_id": 1043858622,
    "osm_type": "node",
    "amenity": "bank",
    "bank": "AZ",
    "name": "ATM - AZ",
    "address": "888 11B Trần Bạch Đằng, An Khánh, Ninh Kiều, Cần Thơ 900000, Việt Nam",
    "district": "Phường Ninh Kiều",
    "lat": 10.040307707074573,
    "lng": 105.75101142330803,
    "opening_hours": null,
    "source": "tags+overpass"
  },
  {
    "id": "osm_node_1043858630",
    "osm_id": 1043858630,
    "osm_type": "node",
    "amenity": "atm",
    "bank": "Techcombank",
    "name": "Techcombank",
    "address": "Techcombank, Võ Văn Tần, Ninh Kiều, Phường Ninh Kiều, Thành phố Cần Thơ, 94111, Việt Nam",
    "district": "Phường Ninh Kiều",
    "lat": 10.0321082,
    "lng": 105.787008,
    "opening_hours": null,
    "source": "nominatim"
  },
  {
    "id": "osm_node_1043858660",
    "osm_id": 1043858660,
    "osm_type": "node",
    "amenity": "bank",
    "bank": "Viet A",
    "name": "Ngân Hàng Việt Á - Chi Nhánh Ô Môn",
    "address": "220 Đường 26 Tháng 3, Châu Văn Liêm, Ô Môn, Cần Thơ, Việt Nam",
    "district": "Ô Môn",
    "lat": 10.113792616901735,
    "lng": 105.621798042584,
    "opening_hours": null,
    "source": "tags+overpass"
  },
  {
    "id": "osm_node_1043858731",
    "osm_id": 1043858731,
    "osm_type": "node",
    "amenity": "bank",
    "bank": "Ngân Hàng Bưu Điện Liên Việt",
    "name": "Ngân Hàng Bưu Điện Liên Việt",
    "address": "6 Đường 26 Tháng 3, Khu Vực, Ô Môn, Cần Thơ 904023, Việt Nam",
    "district": "Ô Môn",
    "lat": 10.114325515379521,
    "lng": 105.62184766270182,
    "opening_hours": null,
    "source": "tags+overpass"
  },
  {
    "id": "osm_node_1043858775",
    "osm_id": 1043858775,
    "osm_type": "node",
    "amenity": "bank",
    "bank": "Ngân Hàng Bưu Điện Liên Việt",
    "name": "Ngân Hàng Bưu Điện Liên Việt Hưng Lợi",
    "address": "2Q99+H29, Hẻm 553, Hưng Lợi, Ninh Kiều, Cần Thơ, Việt Nam",
    "district": "Phường Ninh Kiều",
    "lat": 10.019047913124615,
    "lng": 105.76762145749852,
    "opening_hours": null,
    "source": "tags+overpass"
  },
  {
    "id": "osm_node_1043956935",
    "osm_id": 1043956935,
    "osm_type": "node",
    "amenity": "atm",
    "bank": "Techcombank",
    "name": "Techcombank",
    "address": "Techcombank, Hòa Bình, Phường Ninh Kiều, Thành phố Cần Thơ, 94111, Việt Nam",
    "district": "Phường Ninh Kiều",
    "lat": 10.0350294,
    "lng": 105.7857033,
    "opening_hours": null,
    "source": "nominatim"
  },
  {
    "id": "osm_node_1043956939",
    "osm_id": 1043956939,
    "osm_type": "node",
    "amenity": "bank",
    "bank": "BIDV",
    "name": "Ngân Hàng BIDV - Khu Vực 11",
    "address": "11 4J5F+PV9, Khu Vực 11, Ô Môn, Cần Thơ, Việt Nam",
    "district": "Ô Môn",
    "lat": 10.109461633169548,
    "lng": 105.62476806329781,
    "opening_hours": null,
    "source": "tags+overpass"
  },
  {
    "id": "osm_node_1043956986",
    "osm_id": 1043956986,
    "osm_type": "node",
    "amenity": "bank",
    "bank": "Vietcombank",
    "name": "Ngân Hành TMCP Vietcombank",
    "address": "2QW7+29G, An Hoà, Ninh Kiều, Cần Thơ, Việt Nam",
    "district": "Phường Ninh Kiều",
    "lat": 10.045185072443168,
    "lng": 105.76340858457004,
    "opening_hours": "Thứ Sáu 08:00–16:30, Thứ Năm 08:00–16:30, Thứ Tư 08:00–16:30, Thứ Ba 08:00–16:30, Thứ Hai 08:00–16:30, Chủ Nhật Đóng cửa, Thứ Bảy Đóng cửa",
    "source": "nominatim"
  },
  {
    "id": "osm_node_1043957050",
    "osm_id": 1043957050,
    "osm_type": "node",
    "amenity": "bank",
    "bank": "TPBank",
    "name": "TPBank Bắc Cần Thơ",
    "address": "1A Đ. 30 Tháng 4, phường, Ninh Kiều, Cần Thơ, Việt Nam",
    "district": "Phường Ninh Kiều",
    "lat": 10.023914780771054,
    "lng": 105.77341448457004,
    "opening_hours": "Thứ Bảy,08:00–12:00 Thứ Sáu,08:00–17:00 Thứ Năm,08:00–17:00 Thứ Tư,08:00–17:00 Thứ Ba,08:00–17:00 Thứ Hai,08:00–17:00 Chủ Nhật,Đóng cửa",
    "source": "nominatim"
  },
  {
    "id": "osm_node_1043957073",
    "osm_id": 1043957073,
    "osm_type": "node",
    "amenity": "atm",
    "bank": null,
    "name": "ATM OCB CN Cần Thơ",
    "address": "16B Đ. Hoà Bình, Tân An, Tầng 1, Cần Thơ, Việt Nam",
    "district": "Phường Ninh Kiều",
    "lat": 10.034330786789011,
    "lng": 105.78479507115874,
    "opening_hours": null,
    "source": "nominatim"
  },
  {
    "id": "osm_node_1043957297",
    "osm_id": 1043957297,
    "osm_type": "node",
    "amenity": "atm",
    "bank": "TPBank",
    "name": "TPBank LiveBank",
    "address": "97 Trần Văn Khéo, Cái Khế, Ninh Kiều, Cần Thơ, Việt Nam",
    "district": "Cái Khế",
    "lat": 10.045089705464413,
    "lng": 105.78465474109905,
    "opening_hours": null,
    "source": "tags+overpass"
  },
  {
    "id": "osm_node_1043957303",
    "osm_id": 1043957303,
    "osm_type": "node",
    "amenity": "atm",
    "bank": "VietABank",
    "name": "VietABank",
    "address": "120 Đ.3/2, Xuân Khánh, Ninh Kiều, Cần Thơ, Việt Nam",
    "district": "Phường Ninh Kiều",
    "lat": 10.029107497926846,
    "lng": 105.77156109612497,
    "opening_hours": null,
    "source": "nominatim"
  },
  {
    "id": "osm_node_1043957332",
    "osm_id": 1043957332,
    "osm_type": "node",
    "amenity": "atm",
    "bank": "BIDV",
    "name": "Ngân Hàng Đầu Tư & Phát Triển Việt Nam (Bidv) - Pgd Ninh Kiều",
    "address": "29 Đường Nguyễn An Ninh, Tân An, Ninh Kiều, Cần Thơ, Việt Nam",
    "district": "Phường Ninh Kiều",
    "lat": 10.031513044588376,
    "lng": 105.78644044215515,
    "opening_hours": null,
    "source": "nominatim"
  },
  {
    "id": "osm_node_1043957471",
    "osm_id": 1043957471,
    "osm_type": "node",
    "amenity": "atm",
    "bank": "ACB",
    "name": "ACB - PGD Tây Đô",
    "address": "90 Đường 26 Tháng 3, Châu Văn Liêm, Ô Môn, Cần Thơ, Việt Nam",
    "district": "Ô Môn",
    "lat": 10.11122552611016,
    "lng": 105.62057308848148,
    "opening_hours": null,
    "source": "nominatim"
  },
  {
    "id": "osm_node_1043957511",
    "osm_id": 1043957511,
    "osm_type": "node",
    "amenity": "atm",
    "bank": "Eximbank",
    "name": "Eximbank",
    "address": "180B Đ. 3 Tháng 2, Hưng Lợi, Ninh Kiều, Cần Thơ, Việt Nam",
    "district": "Phường Ninh Kiều",
    "lat": 10.022280565115633,
    "lng": 105.7657831644125,
    "opening_hours": null,
    "source": "nominatim"
  },
  {
    "id": "osm_node_1043957654",
    "osm_id": 1043957654,
    "osm_type": "node",
    "amenity": "bank",
    "bank": "BIDV",
    "name": "Bidv - Atm",
    "address": "29 Đường Nguyễn An Ninh, Tân An, Ninh Kiều, Cần Thơ, Việt Nam",
    "district": "Phường Ninh Kiều",
    "lat": 10.031085891468374,
    "lng": 105.78722874109906,
    "opening_hours": null,
    "source": "tags+overpass"
  },
  {
    "id": "osm_node_1777848465",
    "osm_id": 1777848465,
    "osm_type": "node",
    "amenity": "atm",
    "bank": "Sacombank",
    "name": "Sacombank-PGD Ninh Kiều",
    "address": "168C Đ. 3 Tháng 2, Hưng Lợi, Ninh Kiều, Cần Thơ, Việt Nam",
    "district": "Phường Ninh Kiều",
    "lat": 10.024996401352805,
    "lng": 105.76767076914007,
    "opening_hours": null,
    "source": "nominatim"
  },
  {
    "id": "osm_node_1778746159",
    "osm_id": 1778746159,
    "osm_type": "node",
    "amenity": "bank",
    "bank": "Ngân Hàng Phương Đông",
    "name": "Ngân Hàng Phương Đông",
    "address": "Ngân Hàng Phương Đông, Hẻm 76 Đường 3 Tháng 2, Ninh Kiều, Phường Ninh Kiều, Thành phố Cần Thơ, 94111, Việt Nam",
    "district": "Phường Ninh Kiều",
    "lat": 10.0298633,
    "lng": 105.7729553,
    "opening_hours": null,
    "source": "nominatim"
  },
  {
    "id": "osm_node_1778802986",
    "osm_id": 1778802986,
    "osm_type": "node",
    "amenity": "bank",
    "bank": "BIDV",
    "name": "ATM BIDV",
    "address": "190, Đường 30/4, Phường Hưng Lợi, Quận Ninh Kiều, 536 Đ. 30 Tháng 4, Hưng Lợi, Ninh Kiều, Cần Thơ, Việt Nam",
    "district": "Phường Ninh Kiều",
    "lat": 10.01729247517556,
    "lng": 105.76538740674079,
    "opening_hours": null,
    "source": "tags+overpass"
  },
  {
    "id": "osm_node_1778808140",
    "osm_id": 1778808140,
    "osm_type": "node",
    "amenity": "bank",
    "bank": "Vietcombank",
    "name": "Vietcombank",
    "address": "110 Đ. Cách Mạng Tháng 8, Cái Khế, Ninh Kiều, Cần Thơ, Việt Nam",
    "district": "Phường Cái Khế",
    "lat": 10.050325194864378,
    "lng": 105.77564228481315,
    "opening_hours": "Thứ Sáu,08:00–12:00,13:00–16:30 Thứ Năm,08:00–12:00,13:00–16:30 Thứ Tư,08:00–12:00,13:00–16:30 Thứ Ba,08:00–12:00,13:00–16:30 Thứ Hai,08:00–12:00,13:00–16:30 Chủ Nhật,Đóng cửa Thứ Bảy,Đóng cửa\\",
    "source": "tags+overpass"
  },
  {
    "id": "osm_node_1778808155",
    "osm_id": 1778808155,
    "osm_type": "node",
    "amenity": "bank",
    "bank": "Ngân hàng TMCP Đại Tín",
    "name": "Ngân hàng TMCP Đại Tín",
    "address": "139 Đ. 30 Tháng 4, Xuân Khánh, Ninh Kiều, Cần Thơ, Việt Nam",
    "district": "Phường Ninh Kiều",
    "lat": 10.02779556372517,
    "lng": 105.77748305758513,
    "opening_hours": null,
    "source": "tags+overpass"
  },
  {
    "id": "osm_node_1780014285",
    "osm_id": 1780014285,
    "osm_type": "node",
    "amenity": "bank",
    "bank": "Sacombank",
    "name": "Sacombank",
    "address": "79 Hà Huy Giáp, TT. Cờ Đỏ, Cờ Đỏ, Cần Thơ, Việt Nam",
    "district": "Cờ Đỏ",
    "lat": 10.099195924536744,
    "lng": 105.42942548349399,
    "opening_hours": null,
    "source": "nominatim"
  },
  {
    "id": "osm_node_1780014288",
    "osm_id": 1780014288,
    "osm_type": "node",
    "amenity": "bank",
    "bank": null,
    "name": "Vietcombank - Atm",
    "address": "2QMP+4M3, Nguyễn Thái Học, Tân An, Ninh Kiều, Cần Thơ, Việt Nam",
    "district": "Phường Ninh Kiều",
    "lat": 10.032704593739554,
    "lng": 105.786665759502,
    "opening_hours": null,
    "source": "nominatim"
  },
  {
    "id": "osm_node_1780014955",
    "osm_id": 1780014955,
    "osm_type": "node",
    "amenity": "bank",
    "bank": "Ngân hàng TMCP Đại Tín",
    "name": "Ngân hàng TMCP Đại Tín",
    "address": "Ngân hàng TMCP Đại Tín, Trần Hưng Đạo, Ninh Kiều, Phường Ninh Kiều, Thành phố Cần Thơ, 94111, Việt Nam",
    "district": "Phường Ninh Kiều",
    "lat": 10.0364844,
    "lng": 105.7761425,
    "opening_hours": null,
    "source": "nominatim"
  },
  {
    "id": "osm_node_1780014961",
    "osm_id": 1780014961,
    "osm_type": "node",
    "amenity": "bank",
    "bank": "Techcombank",
    "name": "ATM Techcombank",
    "address": "96 Đ. Mậu Thân, An Hoà, Ninh Kiều, Cần Thơ, Việt Nam",
    "district": "Phường Ninh Kiều",
    "lat": 10.043175324711157,
    "lng": 105.7658340588901,
    "opening_hours": null,
    "source": "tags+overpass"
  },
  {
    "id": "osm_node_1780014967",
    "osm_id": 1780014967,
    "osm_type": "node",
    "amenity": "bank",
    "bank": "Ngân hàng Chính sách xã hội",
    "name": "Ngân Hàng Chính Sách Xã Hội Quận Bình Thủy",
    "address": "133 Đường Nguyễn Truyền Thanh, Bình Thuỷ, Bình Thủy, Cần Thơ, Việt Nam",
    "district": "Phường Ninh Kiều",
    "lat": 10.068887461757532,
    "lng": 105.74756461517023,
    "opening_hours": null,
    "source": "tags+overpass"
  },
  {
    "id": "osm_node_1780015410",
    "osm_id": 1780015410,
    "osm_type": "node",
    "amenity": "bank",
    "bank": "HDBank",
    "name": "HDBank",
    "address": "15 Đ. Trần Bình Trọng, Thới Bình, Ninh Kiều, Cần Thơ, Việt Nam",
    "district": "Phường Ninh Kiều",
    "lat": 10.034590766187476,
    "lng": 105.77815944723338,
    "opening_hours": null,
    "source": "tags+overpass"
  },
  {
    "id": "osm_node_1780019032",
    "osm_id": 1780019032,
    "osm_type": "node",
    "amenity": "bank",
    "bank": "Việt Á",
    "name": "Việt Á",
    "address": "Việt Á, Phan Văn Trị, Ninh Kiều, Phường Ninh Kiều, Thành phố Cần Thơ, 94111, Việt Nam",
    "district": "Phường Ninh Kiều",
    "lat": 10.0330966,
    "lng": 105.7801256,
    "opening_hours": null,
    "source": "nominatim"
  },
  {
    "id": "osm_node_1780019046",
    "osm_id": 1780019046,
    "osm_type": "node",
    "amenity": "bank",
    "bank": "Saigonbank",
    "name": "Saigonbank",
    "address": "7 Đ. Hoà Bình, Tân An, Ninh Kiều, Cần Thơ, Việt Nam",
    "district": "Phường Ninh Kiều",
    "lat": 10.0343637485582,
    "lng": 105.7852863644125,
    "opening_hours": null,
    "source": "tags+overpass"
  },
  {
    "id": "osm_node_1780019527",
    "osm_id": 1780019527,
    "osm_type": "node",
    "amenity": "bank",
    "bank": "SeABank",
    "name": "SeABank",
    "address": "301 Đ. 30 Tháng 4, Phường, Ninh Kiều, Cần Thơ 94000, Việt Nam",
    "district": "Phường Ninh Kiều",
    "lat": 10.0223219063929,
    "lng": 105.77173463557665,
    "opening_hours": null,
    "source": "tags+overpass"
  },
  {
    "id": "osm_node_1780019535",
    "osm_id": 1780019535,
    "osm_type": "node",
    "amenity": "bank",
    "bank": "Ngân hàng VPBank",
    "name": "Ngân hàng VPBank",
    "address": "106C-108 Đ. Lý Tự Trọng, Thới Bình, Ninh Kiều, Cần Thơ, Việt Nam",
    "district": "Phường Ninh Kiều",
    "lat": 10.037320259412018,
    "lng": 105.77802677539815,
    "opening_hours": null,
    "source": "tags+overpass"
  },
  {
    "id": "osm_node_1780019542",
    "osm_id": 1780019542,
    "osm_type": "node",
    "amenity": "bank",
    "bank": "Agribank",
    "name": "Agribank",
    "address": "86 A Mậu Thân, An Hoà, Ninh Kiều, Cần Thơ, Việt Nam",
    "district": "Phường Ninh Kiều",
    "lat": 10.0419225,
    "lng": 105.7642629,
    "opening_hours": null,
    "source": "tags+overpass"
  },
  {
    "id": "osm_node_1780019543",
    "osm_id": 1780019543,
    "osm_type": "node",
    "amenity": "bank",
    "bank": "Ngân hàng TMCP SaiGon",
    "name": "ATM - SCB Saigon Bank",
    "address": "217 Đ. 30 Tháng 4, Xuân Khánh, Ninh Kiều, Cần Thơ, Việt Nam",
    "district": "Phường Ninh Kiều",
    "lat": 10.024169765054054,
    "lng": 105.77383484723337,
    "opening_hours": null,
    "source": "tags+overpass"
  },
  {
    "id": "osm_node_1780020717",
    "osm_id": 1780020717,
    "osm_type": "node",
    "amenity": "bank",
    "bank": "Đông Á Bank",
    "name": "Đông Á Bank",
    "address": "2 Đ. Hai Bà Trưng, Tân An, Ninh Kiều, Cần Thơ 900000, Việt Nam",
    "district": "Phường Ninh Kiều",
    "lat": 10.035494285270355,
    "lng": 105.78930353557665,
    "opening_hours": null,
    "source": "tags+overpass"
  },
  {
    "id": "osm_node_1780020720",
    "osm_id": 1780020720,
    "osm_type": "node",
    "amenity": "bank",
    "bank": "HDBank",
    "name": "HDBank",
    "address": "2QV8+882, Đ. Mậu Thân, Thới Bình, Ninh Kiều, Cần Thơ 90000, Việt Nam",
    "district": "Phường Ninh Kiều",
    "lat": 10.0434776885481,
    "lng": 105.76578085758511,
    "opening_hours": null,
    "source": "tags+overpass"
  },
  {
    "id": "osm_node_1780020722",
    "osm_id": 1780020722,
    "osm_type": "node",
    "amenity": "bank",
    "bank": "Eximbank",
    "name": "Eximbank",
    "address": "2QGG+GG7, Đ. 30 Tháng 4, Xuân Khánh, Ninh Kiều, Cần Thơ, Việt Nam",
    "district": "Phường Ninh Kiều",
    "lat": 10.02680764882488,
    "lng": 105.77619586914007,
    "opening_hours": null,
    "source": "tags+overpass"
  },
  {
    "id": "osm_node_1780020728",
    "osm_id": 1780020728,
    "osm_type": "node",
    "amenity": "bank",
    "bank": " Techcombank",
    "name": "ATM Techcombank",
    "address": "42 Đ. 30 Tháng 4, Tân An, Ninh Kiều, Cần Thơ, Việt Nam",
    "district": "Phường Ninh Kiều",
    "lat": 10.030746264839633,
    "lng": 105.78093694109906,
    "opening_hours": null,
    "source": "tags+overpass"
  },
  {
    "id": "osm_node_1780020730",
    "osm_id": 1780020730,
    "osm_type": "node",
    "amenity": "bank",
    "bank": "ACB",
    "name": "ACB",
    "address": "41C Đ. 30 Tháng 4, Tân An, Ninh Kiều, Cần Thơ, Việt Nam",
    "district": "Phường Ninh Kiều",
    "lat": 10.030353937680085,
    "lng": 105.78092961525682,
    "opening_hours": null,
    "source": "tags+overpass"
  },
  {
    "id": "osm_node_1781217129",
    "osm_id": 1781217129,
    "osm_type": "node",
    "amenity": "atm",
    "bank": null,
    "name": "ATM Vietinbank",
    "address": "3CVJ+57W, Hà Huy Giáp, TT. Cờ Đỏ, Cờ Đỏ, Cần Thơ, Việt Nam",
    "district": "Phường Ninh Kiều",
    "lat": 10.09299891120994,
    "lng": 105.43070532808444,
    "opening_hours": null,
    "source": "tags+overpass"
  },
  {
    "id": "osm_node_1781218570",
    "osm_id": 1781218570,
    "osm_type": "node",
    "amenity": "atm",
    "bank": "VietinBank",
    "name": "Ngân Hàng VietinBank ĐT",
    "address": "923/Ấp Thị Tứ/150 Phan Văn Trị, Thị trấn Phong Điền, Phong Điền, Cần Thơ, Việt Nam",
    "district": "Phường Phong Điền",
    "lat": 9.9985223117857,
    "lng": 105.66566446668864,
    "opening_hours": null,
    "source": "tags+overpass"
  },
  {
    "id": "osm_node_1781226125",
    "osm_id": 1781226125,
    "osm_type": "node",
    "amenity": "bank",
    "bank": "Sacombank",
    "name": "Sacombank",
    "address": "11-13 Đ. Nguyễn Văn Cừ, An Hoà, Ninh Kiều, Cần Thơ, Việt Nam",
    "district": " Ninh Kiều",
    "lat": 10.051396825727549,
    "lng": 105.77310520612892,
    "opening_hours": null,
    "source": "tags+overpass"
  },
  {
    "id": "osm_node_1781226460",
    "osm_id": 1781226460,
    "osm_type": "node",
    "amenity": "bank",
    "bank": "Vietcombank",
    "name": "Vietcombank Cần Thơ - PGD",
    "address": "420-420A Đ. 30 Tháng 4, Hưng Lợi, Ninh Kiều, Cần Thơ, Việt Nam",
    "district": "Phường Ninh Kiều",
    "lat": 10.020868177460802,
    "lng": 105.76930651340587,
    "opening_hours": null,
    "source": "tags+overpass"
  },
  {
    "id": "osm_node_1781226833",
    "osm_id": 1781226833,
    "osm_type": "node",
    "amenity": "bank",
    "bank": "Techombank",
    "name": "Techombank",
    "address": "45A- 47 Đ. 30 Tháng 4, Tân An, Ninh Kiều, Cần Thơ, Việt Nam",
    "district": "Phường Ninh Kiều",
    "lat": 10.029810278464572,
    "lng": 105.78030088457005,
    "opening_hours": "Thứ Bảy 07:30–11:30, Chủ Nhật Đóng cửa, Thứ Hai 07:30–11:30,13:00–17:00, Thứ Ba,07:30–11:30,13:00–17:00, Thứ Tư 07:30–11:30 13:00–17:00, Thứ Năm 07:30–11:30 13:00–17:00, Thứ Sáu 07:30–11:30 13:00–17:00",
    "source": "tags+overpass"
  },
  {
    "id": "osm_node_1781226966",
    "osm_id": 1781226966,
    "osm_type": "node",
    "amenity": "bank",
    "bank": "Techombank",
    "name": "Techcombank An Hòa",
    "address": "243H Đ. Nguyễn Văn Cừ, An Hoà, Ninh Kiều, Cần Thơ 900000, Việt Nam",
    "district": "Phường Ninh Kiều",
    "lat": 10.048138262635081,
    "lng": 105.76872636453953,
    "opening_hours": "Thứ Bảy 07:30–11:30, Chủ Nhật Đóng cửa, Thứ Hai 07:30–11:30,13:00–17:00, Thứ Ba,07:30–11:30,13:00–17:00, Thứ Tư 07:30–11:30 13:00–17:00, Thứ Năm 07:30–11:30 13:00–17:00, Thứ Sáu 07:30–11:30 13:00–17:00",
    "source": "tags+overpass"
  },
  {
    "id": "osm_node_1781228537",
    "osm_id": 1781228537,
    "osm_type": "node",
    "amenity": "bank",
    "bank": "MB",
    "name": "MB",
    "address": "Mậu Thân",
    "district": "Phường Ninh Kiều",
    "lat": 10.0321418,
    "lng": 105.7747444,
    "opening_hours": null,
    "source": "tags+overpass"
  },
  {
    "id": "osm_node_1781247915",
    "osm_id": 1781247915,
    "osm_type": "node",
    "amenity": "bank",
    "bank": "Vietcombank",
    "name": "Vietcombank CN Cần Thơ",
    "address": "3 5-7, Hòa Bình, Ninh Kiều, Cần Thơ, Việt Nam",
    "district": "Phường Ninh Kiều",
    "lat": 10.033820671126264,
    "lng": 105.78478228457006,
    "opening_hours": "Thứ Sáu,07:30–11:30,13:00–16:30 Thứ Năm,07:30–11:30,13:00–16:30 Thứ Tư,07:30–11:30,13:00–16:30 Thứ Ba,07:30–11:30,13:00–16:30 Thứ Hai,07:30–11:30,13:00–16:30 Chủ Nhật,Đóng cửa Thứ Bảy,Đóng cửa",
    "source": "tags+overpass"
  },
  {
    "id": "osm_node_1781250876",
    "osm_id": 1781250876,
    "osm_type": "node",
    "amenity": "bank",
    "bank": "Vietcombank",
    "name": "Vietcombank XMX",
    "address": "8+9H9, Thị trấn Phong Điền, Phong Điền, Cần Thơ, Việt Nam",
    "district": "Phong Điền",
    "lat": 9.998472948589292,
    "lng": 105.66648435983006,
    "opening_hours": null,
    "source": "tags+overpass"
  },
  {
    "id": "osm_node_1783189359",
    "osm_id": 1783189359,
    "osm_type": "node",
    "amenity": "bank",
    "bank": "Ngân Hàng TMCP Sài Gòn",
    "name": "Ngân Hàng Tmcp Sài Gòn - Hà Nội (Shb) - Pgd Thạnh An",
    "address": "2881 QL80, Thị trấn Thanh An, Vĩnh Thạnh, Cần Thơ, Việt Nam",
    "district": "Vĩnh Thạnh",
    "lat": 10.158320653607552,
    "lng": 105.32427390258394,
    "opening_hours": null,
    "source": "tags+overpass"
  },
  {
    "id": "osm_node_1783189360",
    "osm_id": 1783189360,
    "osm_type": "node",
    "amenity": "bank",
    "bank": "HD Bank",
    "name": "HD Bank",
    "address": "15 Đ. Trần Bình Trọng, Thới Bình, Ninh Kiều, Cần Thơ, Việt Nam",
    "district": "Phường Ninh Kiều",
    "lat": 10.034590766187476,
    "lng": 105.77815944723338,
    "opening_hours": null,
    "source": "tags+overpass"
  },
  {
    "id": "osm_node_1783189763",
    "osm_id": 1783189763,
    "osm_type": "node",
    "amenity": "bank",
    "bank": "ATM Techcombank",
    "name": "ATM Techcombank",
    "address": "190 Đ. 30 Tháng 4, P, Ninh Kiều, Cần Thơ, Việt Nam",
    "district": "Phường Ninh Kiều",
    "lat": 10.017422647910982,
    "lng": 105.76555219386027,
    "opening_hours": null,
    "source": "tags+overpass"
  },
  {
    "id": "osm_node_1783189783",
    "osm_id": 1783189783,
    "osm_type": "node",
    "amenity": "bank",
    "bank": "ATM Techcombank",
    "name": "ATM Techcombank",
    "address": "42 Hẻm 42 Đ. 30/4, P, Ninh Kiều, Cần Thơ 900000, Việt Nam",
    "district": "Phường Ninh Kiều",
    "lat": 10.030564045754165,
    "lng": 105.7809869588901,
    "opening_hours": null,
    "source": "tags+overpass"
  },
  {
    "id": "osm_node_1783220813",
    "osm_id": 1783220813,
    "osm_type": "node",
    "amenity": "atm",
    "bank": "Vietcombank",
    "name": "Vietcombank Cần Thơ - PGD Hưng Lợi",
    "address": "420-420A Đ. 30 Tháng 4, Hưng Lợi, Ninh Kiều, Cần Thơ, Việt Nam",
    "district": "Phường Ninh Kiều",
    "lat": 10.021047785156085,
    "lng": 105.7694245305136,
    "opening_hours": null,
    "source": "tags+overpass"
  },
  {
    "id": "osm_node_1783220815",
    "osm_id": 1783220815,
    "osm_type": "node",
    "amenity": "atm",
    "bank": "ABBank",
    "name": "ABBank",
    "address": "216 QL1A, Lê Bình, Cái Răng, Cần Thơ, Việt Nam",
    "district": "Phường Cái Răng",
    "lat": 10.000845802997537,
    "lng": 105.75031456349053,
    "opening_hours": null,
    "source": "tags+overpass"
  },
  {
    "id": "osm_node_1783221444",
    "osm_id": 1783221444,
    "osm_type": "node",
    "amenity": "bank",
    "bank": "Ngân Hàng Chính Sách Xã Hội XMX",
    "name": "Ngân Hàng Chính Sách Xã Hội XMX",
    "address": "8+JGC, Phan Văn Trị, Thị trấn Phong Điền, Phong Điền, Cần Thơ, Việt Nam",
    "district": "Phong Điền",
    "lat": 9.999222624232624,
    "lng": 105.66618851117975,
    "opening_hours": null,
    "source": "tags+overpass"
  },
  {
    "id": "osm_node_1783222952",
    "osm_id": 1783222952,
    "osm_type": "node",
    "amenity": "bank",
    "bank": "Vietcombank",
    "name": "Ngân Hàng Tmcp Ngoại Thương Việt Nam (Vietcombank) - Pgd Ninh Kiều",
    "address": "103 Đường A1, Tân An, Ninh Kiều, Cần Thơ, Việt Nam",
    "district": " Ninh Kiều",
    "lat": 10.044276445648238,
    "lng": 105.78317702681174,
    "opening_hours": null,
    "source": "tags+overpass"
  },
  {
    "id": "osm_node_1783224033",
    "osm_id": 1783224033,
    "osm_type": "node",
    "amenity": "bank",
    "bank": "VietBank",
    "name": "VietBank",
    "address": "26-28 Đ. Hoà Bình, Tân An, Ninh Kiều, Cần Thơ, Việt Nam",
    "district": "Phường Ninh Kiều",
    "lat": 10.034155500429915,
    "lng": 105.78444126922663,
    "opening_hours": "Thứ Sáu,07:30–17:00 Thứ Năm,07:30–17:00 Thứ Tư,07:30–17:00 Thứ Ba,07:30–17:00 Thứ Hai,07:30–17:00 Chủ Nhật,Đóng cửa Thứ Bảy,07:30–17:00",
    "source": "tags+overpass"
  },
  {
    "id": "osm_node_1783264196",
    "osm_id": 1783264196,
    "osm_type": "node",
    "amenity": "bank",
    "bank": "OCEAN Bank",
    "name": "OceanBank Cần Thơ Số",
    "address": "430 Đ. 30 Tháng 4, Hưng Lợi, Ninh Kiều, Cần Thơ, Việt Nam",
    "district": " Ninh Kiều",
    "lat": 10.020762924752201,
    "lng": 105.76917694585703,
    "opening_hours": null,
    "source": "tags+overpass"
  },
  {
    "id": "osm_node_1792768140",
    "osm_id": 1792768140,
    "osm_type": "node",
    "amenity": "bank",
    "bank": "Eximbank",
    "name": "Eximbank",
    "address": "8 Phan Đình Phùng, Tân An, Ninh Kiều, Cần Thơ, Việt Nam",
    "district": "Phường Tân An",
    "lat": 10.034663167656937,
    "lng": 105.78693258894977,
    "opening_hours": null,
    "source": "tags+overpass"
  },
  {
    "id": "osm_node_1793977088",
    "osm_id": 1793977088,
    "osm_type": "node",
    "amenity": "bank",
    "bank": "Ngân hàng TMCP Á Châu",
    "name": "Ngân hàng TMCP Á Châu",
    "address": "322b Đ. Cách Mạng Tháng 8, Bùi Hữu Nghĩa, Bình Thủy, Cần Thơ, Việt Nam",
    "district": "Phường Bình Thủy",
    "lat": 10.063013090837726,
    "lng": 105.76395496628797,
    "opening_hours": null,
    "source": "tags+overpass"
  },
  {
    "id": "osm_node_2332935465",
    "osm_id": 2332935465,
    "osm_type": "node",
    "amenity": "bank",
    "bank": "Ngân Hàng Tmcp Đông Á",
    "name": "Ngân Hàng Đông Á Quận Ô Môn",
    "address": "4J5C+86V, QL91, Châu Văn Liêm, Ô Môn, Cần Thơ, Việt Nam",
    "district": "Phường Ô Môn",
    "lat": 10.108616651067322,
    "lng": 105.62045507124519,
    "opening_hours": null,
    "source": "tags+overpass"
  },
  {
    "id": "osm_node_2332935477",
    "osm_id": 2332935477,
    "osm_type": "node",
    "amenity": "bank",
    "bank": "LPBank",
    "name": "LPBank PGD Bưu điện Cần Thơ",
    "address": "02 Đ. Hoà Bình, Tân An, Ninh Kiều, Cần Thơ, Việt Nam",
    "district": "Phường Ninh Kiều",
    "lat": 10.036038910805198,
    "lng": 105.78636129982682,
    "opening_hours": null,
    "source": "tags+overpass"
  },
  {
    "id": "osm_node_3263355395",
    "osm_id": 3263355395,
    "osm_type": "node",
    "amenity": "bank",
    "bank": "Ngân hàng Phát triển nhà đồng bằng sông Cửu Long",
    "name": "Ngân hàng Phát triển nhà đồng bằng sông Cửu Long",
    "address": "169/15, Ngô Quyền",
    "district": null,
    "lat": 10.0683437,
    "lng": 105.8207574,
    "opening_hours": "Mo-Fr 07:30-17:00; Sa 08:00-11:30",
    "source": "tags+overpass"
  },
  {
    "id": "osm_node_3482849198",
    "osm_id": 3482849198,
    "osm_type": "node",
    "amenity": "atm",
    "bank": "ACB",
    "name": "ACB",
    "address": "17 – 19 Đ. Nam Kỳ Khởi Nghĩa, Tân An, Ninh Kiều, Cần Thơ 900000, Việt Nam",
    "district": "Phường Ninh Kiều",
    "lat": 10.031965684908146,
    "lng": 105.78604626914006,
    "opening_hours": null,
    "source": "tags+overpass"
  },
  {
    "id": "osm_node_3482849199",
    "osm_id": 3482849199,
    "osm_type": "node",
    "amenity": "atm",
    "bank": "Sacombank",
    "name": "Sacombank",
    "address": "19 Đ. Nguyễn Văn Linh, Hưng Lợi, Ninh Kiều, Cần Thơ, Việt Nam",
    "district": "Phường Ninh Kiều",
    "lat": 10.020201425507347,
    "lng": 105.76696798220354,
    "opening_hours": null,
    "source": "tags+overpass"
  },
  {
    "id": "osm_node_4338686189",
    "osm_id": 4338686189,
    "osm_type": "node",
    "amenity": "atm",
    "bank": "Vietcombank",
    "name": "Vietcombank Cần Thơ - PGD Nam Cần Thơ",
    "address": "2Q5P+283, Hưng Phú, Cái Răng, Cần Thơ, Việt Nam",
    "district": "Cái Răng",
    "lat": 10.007655218317678,
    "lng": 105.78570496914006,
    "opening_hours": null,
    "source": "tags+overpass"
  },
  {
    "id": "osm_node_4513193591",
    "osm_id": 4513193591,
    "osm_type": "node",
    "amenity": "atm",
    "bank": "ACB",
    "name": "ACB_ATM",
    "address": "303 Đ. 30 Tháng 4, Xuân Khánh, Ninh Kiều, Cần Thơ, Việt Nam",
    "district": " Ninh Kiều",
    "lat": 10.022267622238218,
    "lng": 105.77167233496475,
    "opening_hours": null,
    "source": "tags+overpass"
  },
  {
    "id": "osm_node_4513205989",
    "osm_id": 4513205989,
    "osm_type": "node",
    "amenity": "bank",
    "bank": "LPBank",
    "name": "LPBank Cần Thơ",
    "address": "62 Đ. Lý Tự Trọng, Thới Bình, Ninh Kiều, Cần Thơ, Việt Nam",
    "district": " Ninh Kiều",
   "lat": 10.035651734401988,
    "lng": 105.77891193845329,
    "opening_hours": null,
    "source": "tags+overpass"
  },
  {
    "id": "osm_node_4515123690",
    "osm_id": 4515123690,
    "osm_type": "node",
    "amenity": "bank",
    "bank": null,
    "name": "Vietcombank - Atm",
    "address": "414 Quốc Lộ 1A, Lê Bình, Cái Răng, Cần Thơ, Việt Nam",
    "district": "Cái Răng",
    "lat": 10.000966907261892,
    "lng": 105.75033367668114,
    "opening_hours": null,
    "source": "tags+overpass"
  },
  {
    "id": "osm_node_4516712842",
    "osm_id": 4516712842,
    "osm_type": "node",
    "amenity": "atm",
    "bank": "BIDV",
    "name": "BIDV Tây Đô",
    "address": "5 Phan Đình Phùng, Tân An, Ninh Kiều, Cần Thơ, Việt Nam",
    "district": "Phường Cái Khế",
    "lat": 10.035329582054791,
    "lng": 105.78715635379668,
    "opening_hours": null,
    "source": "tags+overpass"
  },
  {
    "id": "osm_node_5177435703",
    "osm_id": 5177435703,
    "osm_type": "node",
    "amenity": "atm",
    "bank": "ATM Đông Á Bank, Vietcombank",
    "name": "ATM Đông Á Bank, Vietcombank",
    "address": "2 Đ. Trần Văn Hoài, Xuân Khánh, Ninh Kiều, Cần Thơ, Việt Nam",
    "district": "Phường Tân An",
    "lat": 10.025045523769101,
    "lng": 105.77383248220355,
    "opening_hours": null,
    "source": "tags+overpass"
  },
  {
    "id": "osm_node_5177555814",
    "osm_id": 5177555814,
    "osm_type": "node",
    "amenity": "bank",
    "bank": "Ngân hàng EXIBANK",
    "name": "Ngân hàng EXIBANK",
    "address": "Trần Văn Khéo",
    "district": "Phường Cái Khế",
    "lat": 10.044574,
    "lng": 105.7842934,
    "opening_hours": null,
    "source": "tags+overpass"
  },
  {
    "id": "osm_node_5177594007",
    "osm_id": 5177594007,
    "osm_type": "node",
    "amenity": "bank",
    "bank": "Ngân hàng Phương Đông OCB",
    "name": "Ngân hàng Phương Đông OCB",
    "address": "153-155 Đ. Cách Mạng Tháng 8, Tân An, Ninh Kiều, Cần Thơ 900000, Việt Nam",
    "district": "Phường Cái Khế",
    "lat": 10.051869496329664,
    "lng": 105.77364348448346,
    "opening_hours": null,
    "source": "tags+overpass"
  },
  {
    "id": "osm_node_5177655263",
    "osm_id": 5177655263,
    "osm_type": "node",
    "amenity": "bank",
    "bank": "Ngân hàng Bắc Á",
    "name": "Ngân Hàng Tmcp Bắc Á (Nasbank) - Cn Đồng Bằng Sông Cửu Long",
    "address": "357 Đ. 30 Tháng 4, Hưng Lợi, Ninh Kiều, Cần Thơ, Việt Nam",
    "district": " Ninh Kiều",
    "lat": 10.020297142925301,
    "lng": 105.76934289982684,
    "opening_hours": null,
    "source": "tags+overpass"
  },
  {
    "id": "osm_node_5177691567",
    "osm_id": 5177691567,
    "osm_type": "node",
    "amenity": "atm",
    "bank": "DongA Bank",
    "name": "DongA Bank",
    "address": "315 Đ. Nguyễn Văn Linh, An Khánh, Ninh Kiều, Cần Thơ, Việt Nam",
    "district": "Phường Ninh Kiều",
    "lat": 10.029356807632865,
    "lng": 105.75367264723337,
    "opening_hours": null,
    "source": "tags+overpass"
  },
  {
    "id": "osm_node_5177691569",
    "osm_id": 5177691569,
    "osm_type": "node",
    "amenity": "atm",
    "bank": "BIDV",
    "name": "PGD Nguyễn An Ninh - CN Tây Nam - Ngân hàng TMCP Đầu tư & Phát triển Việt Nam (BIDV)",
    "address": "62 Phan Đình Phùng, Tân An, Ninh Kiều, Cần Thơ 900000, Việt Nam",
    "district": "Phường Tân An",
    "lat": 10.030976874798235,
    "lng": 105.78662770352868,
    "opening_hours": "24/7",
    "source": "tags+overpass"
  },
  {
    "id": "osm_node_5205913439",
    "osm_id": 5205913439,
    "osm_type": "node",
    "amenity": "atm",
    "bank": null,
    "name": "ATM Vietcombank WinMart,",
    "address": "143, Ba Muoi Thang Tu Street, Ward Xuan Khanh, Tân An, Ninh Kiều, Cần Thơ, Việt Nam",
    "district": "Phường Ninh Kiều",
    "lat": 10.016536147954282,
    "lng": 105.76496008220353,
    "opening_hours": null,
    "source": "tags+overpass"
  },
  {
    "id": "osm_node_5205913440",
    "osm_id": 5205913440,
    "osm_type": "node",
    "amenity": "atm",
    "bank": null,
    "name": "Ngân Hàng Tmcp Ngoại Thương Việt Nam - Vietcombank",
    "address": "957 Đường 26 Tháng 3, Châu Văn Liêm, Ô Môn, Cần Thơ, Việt Nam",
    "district": "Phường Ninh Kiều",
    "lat": 10.112598609738692,
    "lng": 105.62120608980266,
    "opening_hours": null,
    "source": "tags+overpass"
  },
  {
    "id": "osm_node_5205913448",
    "osm_id": 5205913448,
    "osm_type": "node",
    "amenity": "atm",
    "bank": "Agribank",
    "name": "Agribank Phong Điền",
    "address": "247 Phan Văn Trị, Thị trấn Phong Điền, Phong Điền, Cần Thơ, Việt Nam",
    "district": "Phường Ninh Kiều",
    "lat": 9.998634225582794,
    "lng": 105.66490242377331,
    "opening_hours": null,
    "source": "tags+overpass"
  },
  {
    "id": "osm_node_5205913449",
    "osm_id": 5205913449,
    "osm_type": "node",
    "amenity": "atm",
    "bank": "Dongabank",
    "name": "Dongabank",
    "address": "58 Đường Hùng Vương, Tân An, Ninh Kiều, Cần Thơ 90000, Việt Nam",
    "district": "Phường Tân An",
    "lat": 10.044190006979717,
    "lng": 105.77837399982684,
    "opening_hours": null,
    "source": "tags+overpass"
  },
  {
    "id": "osm_node_5211389121",
    "osm_id": 5211389121,
    "osm_type": "node",
    "amenity": "bank",
    "bank": "LPBank",
    "name": "LPBank PGD Bưu điện Thạnh An ",
    "address": "Ấp Quy Lân,5, Vĩnh Thạnh, Cần Thơ, Việt Nam ",
    "district": "Phường Cái Khế",
     "lat": 10.217431570251287,
    "lng": 105.3728005035425,
    "opening_hours": null,
    "source": "tags+overpass"
  },
  {
    "id": "osm_node_5211440049",
    "osm_id": 5211440049,
    "osm_type": "node",
    "amenity": "atm",
    "bank": "Sacombank",
    "name": "Sacombank",
    "address": "10 Võ Nguyên Giáp, Phú Thứ, Cái Răng, Cần Thơ, Việt Nam",
    "district": "Phường Cái Răng",
    "lat": 10.000428631654268,
    "lng": 105.80339109446676,
    "opening_hours": null,
    "source": "tags+overpass"
  },
  {
    "id": "osm_node_5211440050",
    "osm_id": 5211440050,
    "osm_type": "node",
    "amenity": "atm",
    "bank": "Đông Á",
    "name": "Đông Á",
    "address": "175 Đ. 30 Tháng 4, Hưng Lợi, Ninh Kiều, Cần Thơ, Việt Nam",
    "district": " Ninh Kiều",
    "lat": 10.015769347991752,
    "lng": 105.76419939999458,
    "opening_hours": null,
    "source": "tags+overpass"
  },
  {
    "id": "osm_node_5211499626",
    "osm_id": 5211499626,
    "osm_type": "node",
    "amenity": "bank",
    "bank": "Maritime Bank",
    "name": "Ngân Hàng Tmcp Hàng Hải Việt Nam (Maritime Bank) - Pgd An Thới",
    "address": "42-44-46 Đường Nguyễn An Ninh, Tân An, Ninh Kiều, Cần Thơ, Việt Nam",
    "district": "Bình Thủy",
    "lat": 10.031514401387165,
    "lng": 105.78637054032524,
    "opening_hours": "Thứ Sáu 07:30–11:30 13:30–17:30, Thứ Bảy 07:30–11:30, Chủ Nhật Đóng cửa, Thứ Hai 07:30–11:30 13:30–17:30, Thứ Ba 07:30–11:30 13:30–17:30, Thứ Tư 07:30–11:30 13:30–17:30, Thứ Năm 07:30–11:30 13:30–17:30",
    "source": "tags+overpass"
  },
  {
    "id": "osm_node_5211519525",
    "osm_id": 5211519525,
    "osm_type": "node",
    "amenity": "bank",
    "bank": "Ngân Hàng Sài Gòn Hà Nội",
    "name": "Ngân Hàng Sài Gòn Hà Nội (Shb) - Pgd Phan Đình Phùng",
    "address": "42 Trần Hưng Đạo p. An Ngiệp",
    "district": "Phường Ninh Kiều",
    "lat": 10.031755985085994,
    "lng": 105.78661827284193,
    "opening_hours": "07:00-11:00; 13:00-17:00",
    "source": "tags+overpass"
  },
  {
    "id": "osm_node_5211609355",
    "osm_id": 5211609355,
    "osm_type": "node",
    "amenity": "bank",
    "bank": "DongA Bank",
    "name": "DongA Bank - Atm",
    "address": "413 Đ. 30 Tháng 4, Hưng Lợi, Ninh Kiều, Cần Thơ 92000, Việt Nam",
    "district": "Phường Ninh Kiều",
    "lat": 10.015423724004222,
    "lng": 105.76429821839754,
    "opening_hours": null,
    "source": "tags+overpass"
  },
  {
    "id": "osm_node_5224115624",
    "osm_id": 5224115624,
    "osm_type": "node",
    "amenity": "bank",
    "bank": "Viet Capital Bank",
    "name": "Viet Capital Bank",
    "address": "234 Đ. Trần Hưng Đạo, Thới Bình, Ninh Kiều, Cần Thơ, Việt Nam",
    "district": " Ninh Kiều",
    "lat": 10.033950271694463,
    "lng": 105.77506791517025,
    "opening_hours": null,
    "source": "tags+overpass"
  },
  {
    "id": "osm_node_5224263329",
    "osm_id": 5224263329,
    "osm_type": "node",
    "amenity": "bank",
    "bank": "VietinBank Thới Lai",
    "name": "VietinBank Thới Lai",
    "address": "3H85+5QH, ĐT922, TT. Thới Lai, Thới Lai, Cần Thơ, Việt Nam",
    "district": null,
    "lat": 10.065515520409543,
    "lng": 105.55952270671227,
    "opening_hours": null,
    "source": "tags+overpass"
  },
  {
    "id": "osm_node_5224263330",
    "osm_id": 5224263330,
    "osm_type": "node",
    "amenity": "bank",
    "bank": "NH Sacombank ",
    "name": "NH Sacombank ",
    "address": "365-373 Nguyễn Văn Cừ Nối Dài, An Bình, Ninh Kiều, Cần Thơ, Việt Nam",
    "district": null,
    "lat": 10.02136490482385,
    "lng": 105.74294154723339,
    "opening_hours": null,
    "source": "tags+overpass"
  },
  {
    "id": "osm_node_5224263331",
    "osm_id": 5224263331,
    "osm_type": "node",
    "amenity": "atm",
    "bank": "ATM Vietinbank",
    "name": "Vietinbank Tây Đô PGD Ô Môn",
    "address": "1177/6 Khu vực 4, Châu Văn Liêm, Ô Môn, Cần Thơ, Việt Nam",
    "district": null,
    "lat": 10.109461633151609,
    "lng": 105.62180690456195,
    "opening_hours": null,
    "source": "tags+overpass"
  },
  {
    "id": "osm_node_5224263332",
    "osm_id": 5224263332,
    "osm_type": "node",
    "amenity": "atm",
    "bank": "ATM Sacombank",
    "name": "ATM Sacombank Khu II",
    "address": "3/2, Xuân Khánh, Ninh Kiều, Cần Thơ, Việt Nam",
    "district": null,
    "lat": 10.030313382426845,
    "lng": 105.77218581165131,
    "opening_hours": null,
    "source": "tags+overpass"
  },
  {
    "id": "osm_node_5224282222",
    "osm_id": 5224282222,
    "osm_type": "node",
    "amenity": "bank",
    "bank": "NH Agribank CN Cờ Đỏ",
    "name": "NH Agribank CN Cờ Đỏ",
    "address": "032 ấp thạnh hòa, Thạnh Phú, Cờ Đỏ, Cần Thơ, Việt Nam",
    "district": null,
    "lat": 10.142457418362657,
    "lng": 105.42976880624113,
    "opening_hours": null,
    "source": "tags+overpass"
  },
  {
    "id": "osm_node_5245298490",
    "osm_id": 5245298490,
    "osm_type": "node",
    "amenity": "bank",
    "bank": "Woori Bank",
    "name": "Woori Bank Vietnam Can Tho KHU SHOPHOUSE VINCOM,",
    "address": "209 Đ. 30 Tháng 4, Xuân Khánh, Ninh Kiều, Cần Thơ 94000, Việt Nam",
    "district": " Ninh Kiều",
    "lat": 10.025439530358083,
    "lng": 105.77534646914006,
    "opening_hours": null,
    "source": "tags+overpass"
  },
  {
    "id": "osm_node_5245298497",
    "osm_id": 5245298497,
    "osm_type": "node",
    "amenity": "bank",
    "bank": "Ngân Hàng Phát Triển Nhà Đồng Bằng Sông Cửu Long",
    "name": "Ngân Hàng Phát Triển Nhà Đồng Bằng Sông Cửu Long (Mhb) - Pgd Nam Cần Thơ",
    "address": "40 Quang Trung, Phú Thứ, Cái Răng, Cần Thơ, Việt Nam",
    "district": "Cái Răng",
    "lat": 10.027460637549558,
    "lng": 105.78051983845327,
    "opening_hours": null,
    "source": "tags+overpass"
  },
  {
    "id": "osm_node_5245298980",
    "osm_id": 5245298980,
    "osm_type": "node",
    "amenity": "bank",
    "bank": "Sacombank",
    "name": "ATM Sacombank (CDM) QL",
    "address": "1A/418 Yên Hạ, Khu vực, Cái Răng, Cần Thơ, Việt Nam",
    "district": "Cái Răng",
    "lat": 10.00127012797454,
    "lng": 105.75033392944233,
    "opening_hours": null,
    "source": "tags+overpass"
  },
  {
    "id": "osm_node_5246556286",
    "osm_id": 5246556286,
    "osm_type": "node",
    "amenity": "bank",
    "bank": "VPBank",
    "name": "ATM VPBANK NGÂN HÀNG TMCP VIỆT NAM THỊNH VƯỢNG ATM VINCOM,",
    "address": "209 Đ. 30 Tháng 4, Tân An, Ninh Kiều, Cần Thơ, Việt Nam",
    "district": " Ninh Kiều",
    "lat": 10.024893327940337,
    "lng": 105.77483791224802,
    "opening_hours": null,
    "source": "tags+overpass"
  },
  {
    "id": "osm_node_5246557221",
    "osm_id": 5246557221,
    "osm_type": "node",
    "amenity": "bank",
    "bank": "OCB",
    "name": "Ngân Hàng Phương Đông (OCB)",
    "address": "14 - 16B Đ. Hoà Bình, Tân An, Ninh Kiều, Cần Thơ 900000, Việt Nam",
    "district": "Phường Ninh Kiều",
    "lat": 10.03440790227275,
    "lng": 105.78472515729459,
    "opening_hours": "Thứ Bảy 07:30–11:30, Chủ Nhật Đóng cửa, Thứ Hai 07:30–11:30 13:00–17:00, Thứ Ba 07:30–11:30 13:00–17:00, Thứ Tư 07:30–11:30 13:00–17:00, Thứ Năm 07:30–11:30 13:00–17:00, Thứ Sáu 07:30–11:30 13:00–17:00",
    "source": "tags+overpass"
  },
  {
    "id": "osm_node_5246574477",
    "osm_id": 5246574477,
    "osm_type": "node",
    "amenity": "bank",
    "bank": "Ngan hang Agribank",
    "name": "Ngan hang Agribank",
    "address": "TP, 106/4 Đ. Võ Tánh, Lê Bình, Cái Răng, Cần Thơ, Việt Nam",
    "district": "Phường Cái Răng",
    "lat": 10.0052392,
    "lng": 105.7473721,
    "opening_hours": "08:30-12:30,15:30-20:00",
    "source": "tags+overpass"
  },
  {
    "id": "osm_node_5250026198",
    "osm_id": 5250026198,
    "osm_type": "node",
    "amenity": "atm",
    "bank": "ATM BIDV",
    "name": "CN Đồng Bằng Sông Cửu Long - Ngân hàng TMCP Đầu tư & Phát triển Việt Nam (BIDV)",
    "address": "53-53A Võ Văn Tần, Tân An, Ninh Kiều, Cần Thơ 900000, Việt Nam",
    "district": "Phường Ninh Kiều",
    "lat": 10.032362385890453,
    "lng": 105.78550299295905,
    "opening_hours": "24/7",
    "source": "tags+overpass"
  },
  {
    "id": "osm_node_5250026199",
    "osm_id": 5250026199,
    "osm_type": "node",
    "amenity": "bank",
    "bank": "BIDV",
    "name": "PGD Ninh Kiều - CN TP Cần Thơ - Ngân hàng TMCP Đầu tư & Phát triển Việt Nam (BIDV)",
    "address": "107 Đ. Cách Mạng Tháng 8, Tân An, Ninh Kiều, Cần Thơ 900000, Việt Nam",
    "district": "Phường Ninh Kiều",
    "lat": 10.05169086053192,
    "lng": 105.77412003087642,
    "opening_hours": "Thứ Sáu 08:00–11:30 13:00–16:30, Thứ Bảy Đóng cửa, Chủ Nhật Đóng cửa, Thứ Hai 08:00–11:30 13:00–16:30, Thứ Ba 08:00–11:30 13:00–16:30, Thứ Tư 08:00–11:30 13:00–16:30, Thứ Năm 08:00–11:30 13:00–16:30",
    "source": "tags+overpass"
  },
  {
    "id": "osm_node_5251200994",
    "osm_id": 5251200994,
    "osm_type": "node",
    "amenity": "atm",
    "bank": "ATM Vietin Bank",
    "name": "ATM Vietin Bank",
    "address": "2QMF+JC7, Đ. Mậu Thân, Xuân Khánh, Ninh Kiều, Cần Thơ 920000, Việt Nam",
    "district": "Phường Ninh Kiều",
    "lat": 10.034376371249609,
    "lng": 105.77334108078159,
    "opening_hours": null,
    "source": "tags+overpass"
  },
  {
    "id": "osm_node_5251200995",
    "osm_id": 5251200995,
    "osm_type": "node",
    "amenity": "bank",
    "bank": "Ngân Hàng Bidv Hưng Lợi",
    "name": "Ngân Hàng Bidv Hưng Lợi",
    "address": "2Q75+G9C, Hẻm 132 Đ. 3 Tháng 2, Hưng Lợi, Ninh Kiều, Cần Thơ, Việt Nam",
    "district": "Phường Ninh Kiều",
    "lat": 10.01416002311795,
    "lng": 105.75855346120039,
    "opening_hours": null,
    "source": "tags+overpass"
  },
  {
    "id": "osm_node_5251465803",
    "osm_id": 5251465803,
    "osm_type": "node",
    "amenity": "bank",
    "bank": "Ngân hàng PV Bank",
    "name": "ATM PVcomBank Cần Thơ Co.opmart Cần Thơ Số",
    "address": "1A Hòa Bình, Ninh Kiều, Cần Thơ, Việt Nam",
    "district": " Ninh Kiều",
    "lat": 10.034400585310513,
    "lng": 105.78572705275577,
    "opening_hours": null,
    "source": "tags+overpass"
  },
  {
    "id": "osm_node_5251604550",
    "osm_id": 5251604550,
    "osm_type": "node",
    "amenity": "bank",
    "bank": "Vietcombank",
    "name": "ATM Vietcombank",
    "address": "2 Đ. Hai Bà Trưng, Tân An, Ninh Kiều, Cần Thơ 94000, Việt Nam",
    "district": "Phường Ninh Kiều",
    "lat": 10.035979248462658,
    "lng": 105.7894459711587,
    "opening_hours": null,
    "source": "tags+overpass"
  },
  {
    "id": "osm_node_5251645330",
    "osm_id": 5251645330,
    "osm_type": "node",
    "amenity": "bank",
    "bank": "Maritime Bank",
    "name": "ATM Maritime Bank - Khu Vực Cần Thơ",
    "address": "188A Đ. 3 Tháng 2, Hưng Lợi, Ninh Kiều, Cần Thơ, Việt Nam",
    "district": " Ninh Kiều",
    "lat": 10.020653399999992,
    "lng": 105.76361711656178,
    "opening_hours": null,
    "source": "tags+overpass"
  },
  {
    "id": "osm_node_5251841868",
    "osm_id": 5251841868,
    "osm_type": "node",
    "amenity": "bank",
    "bank": "Vietcombank",
    "name": "Sense City ATM Vietcombank",
    "address": "36 Phan Đình Phùng, Tân An, Ninh Kiều, Cần Thơ, Việt Nam",
    "district": "Phường Ninh Kiều",
    "lat": 10.034631457380485,
    "lng": 105.78595954048716,
    "opening_hours": null,
    "source": "tags+overpass"
  },
  {
    "id": "osm_node_5253332051",
    "osm_id": 5253332051,
    "osm_type": "node",
    "amenity": "bank",
    "bank": "Ngân Hàng Nông Nghiệp Và Phát Triển Nông Thôn Việt Nam",
    "name": "Ngân Hàng Nông Nghiệp Và Phát Triển Nông Thôn Việt Nam",
    "address": "2983 QL80, Thị trấn Thanh An, Vĩnh Thạnh, Cần Thơ, Việt Nam",
    "district": "Vĩnh Thạnh",
    "lat": 10.15523025434253,
    "lng": 105.32160343806117,
    "opening_hours": null,
    "source": "tags+overpass"
  },
  {
    "id": "osm_node_5253404147",
    "osm_id": 5253404147,
    "osm_type": "node",
    "amenity": "bank",
    "bank": "Ngân Hàng VDP",
    "name": "Ngân Hàng VDP Cần Thơ",
    "address": "47 Đ. Phan Chu Trinh, Tân An, Ninh Kiều, Cần Thơ, Việt Nam",
    "district": "Phường Ninh Kiều",
    "lat": 10.032118788301396,
    "lng": 105.78678516914006,
    "opening_hours": null,
    "source": "tags+overpass"
  },
  {
    "id": "osm_node_5253408678",
    "osm_id": 5253408678,
    "osm_type": "node",
    "amenity": "atm",
    "bank": "ATM- VIB",
    "name": "ATM Ngân hàng Quốc tế - VIB Hưng Phú Số",
    "address": "01-02 Khu A2, TT TM Phức hợp Cần Thơ Center, Khu 11, Cái Răng, Cần Thơ, Việt Nam",
    "district": "Cái Răng",
    "lat": 10.014971167026854,
    "lng": 105.78316237054682,
    "opening_hours": "24/7",
    "source": "tags+overpass"
  },
  {
    "id": "osm_node_5253417351",
    "osm_id": 5253417351,
    "osm_type": "node",
    "amenity": "bank",
    "bank": "Ngân Hàng Quốc Tế - VIB",
    "name": "Ngân Hàng Quốc Tế - VIB Cần Thơ Một phần tầng trệt của Trung Tâm Mua Sắm Nguyễn Kim Cần Thơ",
    "address": "2 đường 30/4 phường An Phú, 12 Đ. Hoà Bình, Tân An, Ninh Kiều, Cần Thơ 900000, Việt Nam",
    "district": "Phường Tân An",
    "lat": 10.032455320823885,
    "lng": 105.78168646102726,
    "opening_hours": "Thứ Sáu 08:00–12:00 13:00–17:00, Thứ Bảy 08:00–12:00, Chủ Nhật Đóng cửa, Thứ Hai 08:00–12:00 13:00–17:00, Thứ Ba 08:00–12:00 13:00–17:00, Thứ Tư08:00–12:00 13:00–17:00, Thứ Năm 08:00–12:00 13:00–17:00",
    "source": "tags+overpass"
  },
  {
    "id": "osm_node_5253418577",
    "osm_id": 5253418577,
    "osm_type": "node",
    "amenity": "bank",
    "bank": "VietinBank",
    "name": "VietinBank",
    "address": "2QH3+MRC, An Khánh, Ninh Kiều, Cần Thơ, Việt Nam",
    "district": " Ninh Kiều",
    "lat": 10.029214454975442,
    "lng": 105.75451795214387,
    "opening_hours": null,
    "source": "tags+overpass"
  },
  {
    "id": "osm_node_5253418595",
    "osm_id": 5253418595,
    "osm_type": "node",
    "amenity": "atm",
    "bank": "Ngân Hàng Chính Sách Xã Hội",
    "name": "Ngân Hàng Chính Sách Xã Hội Huyện Thốt Nốt (Vbsp) - Đgd Xã Thới Thuận",
    "address": "8F6H+HFJ, QL80, Thới Thuận, Vĩnh Thạnh, Cần Thơ, Việt Nam",
    "district": "Vĩnh Thạnh",
    "lat": 10.313262141445772,
    "lng": 105.47876116019175,
    "opening_hours": "24/7",
    "source": "tags+overpass"
  },
  {
    "id": "osm_node_5253674703",
    "osm_id": 5253674703,
    "osm_type": "node",
    "amenity": "bank",
    "bank": "PV Com Bank",
    "name": "ATM PVCombank",
    "address": "2QGF+8XP, Xuân Khánh, Ninh Kiều, Cần Thơ, Việt Nam",
    "district": "Phường Ninh Kiều",
    "lat": 10.02578307656023,
    "lng": 105.77507795829338,
    "opening_hours": null,
    "source": "tags+overpass"
  },
  {
    "id": "osm_node_5253691365",
    "osm_id": 5253691365,
    "osm_type": "node",
    "amenity": "bank",
    "bank": "Agribank",
    "name": "Agribank",
    "address": "15, Đại lộ Hòa Bình",
    "district": "Phường Ninh Kiều",
    "lat": 10.0324317,
    "lng": 105.7833691,
    "opening_hours": null,
    "source": "tags+overpass"
  },
  {
    "id": "osm_node_5257244474",
    "osm_id": 5257244474,
    "osm_type": "node",
    "amenity": "atm",
    "bank": "ATM Vietcombank",
    "name": "Ngân Hành TMCP Vietcombank chi nhánh An Hoà",
    "address": "2QW7+29G, An Hoà, Ninh Kiều, Cần Thơ, Việt Nam",
    "district": " Ninh Kiều",
    "lat": 10.045290716107854,
    "lng": 105.7632154654382,
    "opening_hours": null,
    "source": "tags+overpass"
  },
  {
    "id": "osm_node_5257244475",
    "osm_id": 5257244475,
    "osm_type": "node",
    "amenity": "atm",
    "bank": "VietinBank",
    "name": "VietinBank",
    "address": "2P4C+GXQ, Nguyễn Văn Cừ Nối Dài, An Bình, Ninh Kiều, Cần Thơ, Việt Nam",
    "district": "Phường An Bình",
    "lat": 10.006363731268179,
    "lng": 105.72247731778023,
    "opening_hours": null,
    "source": "tags+overpass"
  },
  {
    "id": "osm_node_5311296926",
    "osm_id": 5311296926,
    "osm_type": "node",
    "amenity": "atm",
    "bank": "Đông Á bank",
    "name": "Đông Á bank",
    "address": "58D Hùng Vương, Tân An, Ninh Kiều, Cần Thơ 90000, Việt Nam",
    "district": "Phường Ninh Kiều",
    "lat": 10.044020976524486,
    "lng": 105.77843837284193,
    "opening_hours": null,
    "source": "tags+overpass"
  },
  {
    "id": "osm_node_5311341324",
    "osm_id": 5311341324,
    "osm_type": "node",
    "amenity": "bank",
    "bank": "Ngân hàng Đại Dương",
    "name": "Ngân hàng Đại Dương",
    "address": "Hòa Bình",
    "district": "Phường Ninh Kiều",
    "lat": 10.0354371,
    "lng": 105.7860077,
    "opening_hours": "Mo-Fr 09:00-18:00",
    "source": "tags+overpass"
  },
  {
    "id": "osm_node_6132954781",
    "osm_id": 6132954781,
    "osm_type": "node",
    "amenity": "atm",
    "bank": "LPBank",
    "name": "ATM LPBank Cần Thơ Số",
    "address": "2 Đ. Hoà Bình, Thành phố, Ninh Kiều, Cần Thơ, Việt Nam",
    "district": "Phường Ninh Kiều",
    "lat": 10.03581870438199,
    "lng": 105.78662798220353,
    "opening_hours": null,
    "source": "tags+overpass"
  },
  {
    "id": "osm_node_6132959543",
    "osm_id": 6132959543,
    "osm_type": "node",
    "amenity": "atm",
    "bank": "ACB bank",
    "name": "ACB bank",
    "address": "322B Đ. Cách Mạng Tháng 8, Bùi Hữu Nghĩa, Bình Thủy, Cần Thơ 900000, Việt Nam",
    "district": "Phường Ninh Kiều",
    "lat": 10.06229475263217,
    "lng": 105.76385135749851,
    "opening_hours": null,
    "source": "tags+overpass"
  },
  {
    "id": "osm_node_6339715691",
    "osm_id": 6339715691,
    "osm_type": "node",
    "amenity": "atm",
    "bank": null,
    "name": "ATM Vietcombank Bệnh viện Phụ sản Quốc tế Phương Châu,",
    "address": "300 Nguyễn Văn Cừ Nối Dài, An Khánh, Ninh Kiều, Cần Thơ 902490, Việt Nam",
    "district": " Ninh Kiều",
    "lat": 10.0299261427373,
    "lng": 105.75102792883042,
    "opening_hours": null,
    "source": "tags+overpass"
  },
  {
    "id": "osm_node_6543772649",
    "osm_id": 6543772649,
    "osm_type": "node",
    "amenity": "bank",
    "bank": "Ngân hàng TMCP Xây dựng Việt Nam PGD Ninh Kiều",
    "name": "Ngân hàng TMCP Xây dựng Việt Nam PGD Ninh Kiều",
    "address": "118/9/43A-118/9/43K Trần Văn Khéo, Tân An, Ninh Kiều, Cần Thơ, Việt Nam",
    "district": "Phường Ninh Kiều",
    "lat": 10.044137872853574,
    "lng": 105.78332271517023,
    "opening_hours": null,
    "source": "tags+overpass"
  },
  {
    "id": "osm_node_6543774568",
    "osm_id": 6543774568,
    "osm_type": "node",
    "amenity": "bank",
    "bank": "SeABank",
    "name": "SeABank",
    "address": "61D Võ Văn Tần, Street, Ninh Kiều, Cần Thơ, Việt Nam",
    "district": "Phường Ninh Kiều",
    "lat": 10.032463843657961,
    "lng": 105.78527862681176,
    "opening_hours": null,
    "source": "tags+overpass"
  },
  {
    "id": "osm_node_6696266885",
    "osm_id": 6696266885,
    "osm_type": "node",
    "amenity": "atm",
    "bank": "vietcombank",
    "name": "Vietcombank - PGD Hưng Phú",
    "address": "44 Đ. Lý Thái Tổ, Hưng Phú, Cái Răng, Cần Thơ, Việt Nam",
    "district": "Cái Răng",
    "lat": 10.021431084756435,
    "lng": 105.78823428818531,
    "opening_hours": null,
    "source": "tags+overpass"
  },
  {
    "id": "osm_node_7149121520",
    "osm_id": 7149121520,
    "osm_type": "node",
    "amenity": "atm",
    "bank": "Ngân Hàng Chính Sách Xã Hội",
    "name": "Ngân Hàng Chính Sách Xã Hội Huyện Vĩnh Thạnh (Vbsp) - Đgd Xã Thạnh Quới",
    "address": "696H+J5Q, QL80, Thạnh Quới, Vĩnh Thạnh, Cần Thơ, Việt Nam",
    "district": "Phường Vĩnh Thạnh",
    "lat": 10.213595919144737,
    "lng": 105.37871883032265,
    "opening_hours": null,
    "source": "tags+overpass"
  },
  {
    "id": "osm_node_7192331690",
    "osm_id": 7192331690,
    "osm_type": "node",
    "amenity": "atm",
    "bank": "Eximbank",
    "name": "Eximbank",
    "address": "221 Đ. 3 Tháng 2, Hưng Lợi, Ninh Kiều, Cần Thơ 900000, Việt Nam",
    "district": "Phường Ninh Kiều",
    "lat": 10.021995682562403,
    "lng": 105.76555284662147,
    "opening_hours": null,
    "source": "tags+overpass"
  },
  {
    "id": "osm_node_8496896461",
    "osm_id": 8496896461,
    "osm_type": "node",
    "amenity": "bank",
    "bank": "VBSP",
    "name": "Ngân Hàng Chính Sách Xã Hội Huyện Thới Lai (Vbsp) - Đgd Thị Trấn Thới Lai",
    "address": "3H65+F6M, ĐT922, TT. Thới Lai, Thới Lai, Cần Thơ, Việt Nam",
    "district": "Thới lai",
    "lat": 10.061576072584286,
    "lng": 105.55807902596507,
    "opening_hours": "24/7",
    "source": "tags+overpass"
  },
  {
    "id": "osm_node_10223778899",
    "osm_id": 10223778899,
    "osm_type": "node",
    "amenity": "bank",
    "bank": "Eximbank",
    "name": "Eximbank - Atm",
    "address": "308 Đ. 30 Tháng 4, Xuân Khánh, Ninh Kiều, Cần Thơ, Việt Nam",
    "district": " Ninh Kiều",
    "lat": 10.021414765143833,
    "lng": 105.77013078281546,
    "opening_hours": null,
    "source": "tags+overpass"
  },
  {
    "id": "osm_node_11266613305",
    "osm_id": 11266613305,
    "osm_type": "node",
    "amenity": "bank",
    "bank": "Ngân hàng Đông Á",
    "name": "Ngân hàng Đông Á",
    "address": "612 Đ. 30 Tháng 4, Hưng Lợi, Ninh Kiều, Cần Thơ, Việt Nam",
    "district": " Ninh Kiều",
    "lat": 10.01573036532903,
    "lng": 105.76414438220354,
    "opening_hours": null,
    "source": "tags+overpass"
  },
  {
    "id": "osm_node_11289915303",
    "osm_id": 11289915303,
    "osm_type": "node",
    "amenity": "atm",
    "bank": "VietinBank",
    "name": "VietinBank",
    "address": "344 Đ. Cách Mạng Tháng 8, Bùi Hữu Nghĩa, Bình Thủy, Cần Thơ, Việt Nam",
    "district": "Phường Bình Thủy",
    "lat": 10.062619,
    "lng": 105.762641,
    "opening_hours": null,
    "source": "tags+overpass"
  },
  {
    "id": "osm_node_11371119289",
    "osm_id": 11371119289,
    "osm_type": "node",
    "amenity": "bank",
    "bank": "Oceanbank",
    "name": "Oceanbank - Atm",
    "address": "7 Đ. Hoà Bình, Tân An, Ninh Kiều, Cần Thơ, Việt Nam",
    "district": "Phường Ninh Kiều",
    "lat": 10.034365729443456,
    "lng": 105.78528435275578,
    "opening_hours": null,
    "source": "tags+overpass"
  },
  {
    "id": "osm_node_13229145041",
    "osm_id": 13229145041,
    "osm_type": "node",
    "amenity": "bank",
    "bank": "NCB",
    "name": "Ncb Bank - Atm",
    "address": "257 Đ. 30 Tháng 4, Xuân Khánh, Ninh Kiều, Cần Thơ 90000, Việt Nam",
    "district": " Ninh Kiều",
    "lat": 10.023185487311432,
    "lng": 105.77276887054683,
    "opening_hours": null,
    "source": "tags+overpass"
  },
  {
    "id": "osm_way_89748475",
    "osm_id": 89748475,
    "osm_type": "way",
    "amenity": "bank",
    "bank": "Vietcombank",
    "name": "ATM Vietcombank",
    "address": "2P8Q+WCF, An Bình, Ninh Kiều, Cần Thơ, Việt Nam",
    "district": "Phường Ninh Kiều",
    "lat": 10.017342249563928,
    "lng": 105.73855744723339,
    "opening_hours": null,
    "source": "tags+overpass"
  },
  {
    "id": "osm_way_457041677",
    "osm_id": 457041677,
    "osm_type": "way",
    "amenity": "bank",
    "bank": "Vietcombank",
    "name": "ATM Vietcombank",
    "address": "17a Nguyễn Văn Cừ Nối Dài, An Bình, Ninh Kiều, Cần Thơ, Việt Nam",
    "district": "Phường Ninh Kiều",
    "lat": 10.008043648369009,
    "lng": 105.72771427668114,
    "opening_hours": null,
    "source": "tags+overpass"
  },
  {
    "id": "osm_way_537845011",
    "osm_id": 537845011,
    "osm_type": "way",
    "amenity": "bank",
    "bank": "BIDV",
    "name": "Bidv - Máy Pos - Atm",
    "address": "4 Đ. Hai Bà Trưng, Tân An, Ninh Kiều, Cần Thơ, Việt Nam",
    "district": "Phường Ninh Kiều",
    "lat": 10.034518942653028,
    "lng": 105.78501655889009,
    "opening_hours": null,
    "source": "tags+overpass"
  },
  {
    "id": "osm_way_537845012",
    "osm_id": 537845012,
    "osm_type": "way",
    "amenity": "bank",
    "bank": "ATM SCB",
    "name": "ATM SCB Cần Thơ",
    "address": "213-215-217 Đ. 30 Tháng 4, Phường, Ninh Kiều, Cần Thơ 900000, Việt Nam",
    "district": "Phường Ninh Kiều",
    "lat": 10.01765592559546,
    "lng": 105.76630752330801,
    "opening_hours": null,
    "source": "tags+overpass"
  },
  {
    "id": "osm_way_542538596",
    "osm_id": 542538596,
    "osm_type": "way",
    "amenity": "bank",
    "bank": "Kienlongbank ",
    "name": "Kienlongbank - Atm",
    "address": "23 Đ. Cách Mạng Tháng 8, P, Bình Thủy, Cần Thơ 900000, Việt Nam",
    "district": "Bình Thủy",
    "lat": 10.060387788075841,
    "lng": 105.76492426196485,
    "opening_hours": null,
    "source": "tags+overpass"
  },
  {
    "id": "osm_way_543247133",
    "osm_id": 543247133,
    "osm_type": "way",
    "amenity": "bank",
    "bank": "Shinhan Bank",
    "name": "Ngân hàng Shinhan",
    "address": "209 đường 30/04, Xuân Khánh, Ninh Kiều, Cần Thơ, Việt Nam",
    "district": "Phường Ninh Kiều",
    "lat": 10.025092405454421,
    "lng": 105.77537241340589,
    "opening_hours": "Thứ Sáu,08:30–16:30 Thứ Năm,08:30–16:30 Thứ Tư,08:30–16:30 Thứ Ba,08:30–16:30 Thứ Hai,08:30–16:30 Chủ Nhật,Đóng cửa Thứ Bảy,Đóng cửa",
    "source": "tags+overpass"
  },
  {
    "id": "osm_way_543313531",
    "osm_id": 543313531,
    "osm_type": "way",
    "amenity": "bank",
    "bank": "Vietcombank",
    "name": "Vietcombank",
    "address": "40 Quang Trung, Phú Thứ, Cái Răng, Cần Thơ, Việt Nam",
    "district": "Cái Răng",
    "lat": 10.005452155575643,
    "lng": 105.79876207667574,
    "opening_hours": null,
    "source": "tags+overpass"
  },
  {
    "id": "osm_way_543456126",
    "osm_id": 543456126,
    "osm_type": "way",
    "amenity": "bank",
    "bank": "STM - KienlongBank Bình Thủy",
    "name": "STM - KienlongBank Bình Thủy",
    "address": "77 Đ. Cách Mạng Tháng 8, Bùi Hữu Nghĩa, Bình Thủy, Cần Thơ 902889, Việt Nam",
    "district": "Bình Thủy",
    "lat": 10.063909440939044,
    "lng": 105.76136748281544,
    "opening_hours": null,
    "source": "tags+overpass"
  },
  {
    "id": "osm_way_543456128",
    "osm_id": 543456128,
    "osm_type": "way",
    "amenity": "bank",
    "bank": "Ngân hàng Phương Đông",
    "name": "Ngân Hàng TMCP Phương Đông (OCB) - PGD Trần Hưng Đạo",
    "address": "67-69 Đ. Trần Hưng Đạo, Thới Bình, Ninh Kiều, Cần Thơ 900000, Việt Nam",
    "district": "Phường Ninh Kiều",
    "lat": 10.038998412252473,
    "lng": 105.77656996914007,
    "opening_hours": null,
    "source": "tags+overpass"
  },
  {
    "id": "osm_way_543456660",
    "osm_id": 543456660,
    "osm_type": "way",
    "amenity": "bank",
    "bank": "ACB",
    "name": "ACB",
    "address": "8A Đ. 30 Tháng 4, Xuân Khánh, Ninh Kiều, Cần Thơ 900000, Việt Nam",
    "district": "Phường Ninh Kiều",
    "lat": 10.02276298336754,
    "lng": 105.77169053845329,
    "opening_hours": "Mo-Fr 08:30-20:00, Tu-Su 08:00-15:00; Sa 08:00-12:00",
    "source": "tags+overpass"
  },
  {
    "id": "osm_way_543456661",
    "osm_id": 543456661,
    "osm_type": "way",
    "amenity": "bank",
    "bank": "VIB",
    "name": "Ngân Hàng Quốc tế - VIB Hưng Phú Số",
    "address": "01 – 02 Khu A2, Trung tâm Thương mại Phức hợp Cần Thơ Center, Khu vực 11, Cái Răng, Cần Thơ, Việt Nam",
    "district": "Cái Răng",
    "lat": 10.015292091155661,
    "lng": 105.78320987284192,
    "opening_hours": null,
    "source": "tags+overpass"
  },
  {
    "id": "osm_way_543456662",
    "osm_id": 543456662,
    "osm_type": "way",
    "amenity": "bank",
    "bank": "Eximbank",
    "name": "Eximbank - Atm",
    "address": "6 Nguyễn Trãi, Tân An, Ninh Kiều, Cần Thơ, Việt Nam",
    "district": "Phường Ninh Kiều",
    "lat": 10.042803743890357,
    "lng": 105.78249367054683,
    "opening_hours": null,
    "source": "tags+overpass"
  },
  {
    "id": "osm_way_895435943",
    "osm_id": 895435943,
    "osm_type": "way",
    "amenity": "bank",
    "bank": "VietinBank",
    "name": "VietinBank",
    "address": "2QF6+F7X, QL91B, Hưng Lợi, Ninh Kiều, Cần Thơ, Việt Nam",
    "district": "Phường Ninh Kiều",
    "lat": 10.023759565067412,
    "lng": 105.7607466999946,
    "opening_hours": null,
    "source": "tags+overpass"
  },
  {
    "id": "osm_way_1216687207",
    "osm_id": 1216687207,
    "osm_type": "way",
    "amenity": "bank",
    "bank": "VietinBank",
    "name": "VietinBank",
    "address": "168 Đ. 3 Tháng 2, Xuân Khánh, Ninh Kiều, Cần Thơ, Việt Nam",
    "district": "Phường Ninh Kiều",
    "lat": 10.02783478555142,
    "lng": 105.76992308833786,
    "opening_hours": null,
    "source": "tags+overpass"
  },
  {
    "id": "osm_way_1217683439",
    "osm_id": 1217683439,
    "osm_type": "way",
    "amenity": "bank",
    "bank": "SHB",
    "name": "Ngân Hàng Shb",
    "address": "44 Đ. Trần Hưng Đạo, Thới Bình, Ninh Kiều, Cần Thơ, Việt Nam",
    "district": "Phường Ninh Kiều",
    "lat": 10.044857052033104,
    "lng": 105.7757677557342,
    "opening_hours": "Thứ Sáu,07:30–11:30,13:00–17:00 Thứ Năm,07:30–11:30,13:00–17:00 Thứ Tư,07:30–11:30,13:00–17:00 Thứ Ba,07:30–11:30,13:00–17:00 Thứ Hai,07:30–11:30,13:00–17:00 Chủ Nhật,Đóng cửa Thứ Bảy,07:30–11:30",
    "source": "tags+overpass"
  },
  {
    "id": "osm_way_1227502279",
    "osm_id": 1227502279,
    "osm_type": "way",
    "amenity": "bank",
    "bank": "Ngân Hàng Chính Sách Xã Hội",
    "name": "Ngân Hàng Chính Sách Xã Hội Huyện Vĩnh Thạnh (Vbsp) - Đgd Xã Thạnh Mỹ",
    "address": "6CX7+434, QL80, Thạnh Mỹ, Vĩnh Thạnh, Cần Thơ, Việt Nam",
    "district": "Vĩnh Thạnh",
    "lat": 10.25124012123164,
    "lng": 105.41321834503078,
    "opening_hours": null,
    "source": "tags+overpass"
  },
  {
    "id": "osm_way_1227502281",
    "osm_id": 1227502281,
    "osm_type": "way",
    "amenity": "bank",
    "bank": "Vietcombank",
    "name": "ATM Vietcombank Kho bạc Nhà nước TP,",
    "address": "369F Đ. Nguyễn Văn Cừ, An Khánh, Ninh Kiều, Cần Thơ 902490, Việt Nam",
    "district": " Ninh Kiều",
    "lat": 10.035395864687958,
    "lng": 105.75663949999458,
    "opening_hours": null,
    "source": "tags+overpass"
  },
  {
    "id": "osm_way_1411852024",
    "osm_id": 1411852024,
    "osm_type": "way",
    "amenity": "bank",
    "bank": null,
    "name": "Ngân hàng TMCP Phương Đông (OCB) - PGD Nguyễn Văn Cừ (CN Cần Thơ) Tp, Số",
    "address": "69 – AA và 71 – AA, Nguyễn Văn Cừ, P.An Bình, KDC Cái Sơn, Ninh Kiều, Cần Thơ 90000, Việt Nam",
    "district": " Ninh Kiều",
    "lat": 10.026666349055212,
    "lng": 105.74767056914007,
    "opening_hours": null,
    "source": "tags+overpass"
  },
  {
    "osm_id": "1780020716",
    "lat": 10.109556693514994,
    "lng": 105.62226824454537,
    "bank": "Eximbank",
    "name": "Eximbank Can Tho - O Mon Transaction Office",
    "address": "100 QL91, Châu Văn Liêm, Ô Môn, Cần Thơ, Việt Nam",
    "amenity": "bank",
    "raw_tags": {
      "amenity": "bank",
      "name": "Eximbank"
    },
    "source": "overpass",
    "updated_at": "2025-11-11T09:50:18.856Z"
  },
  {
    "osm_id": "8005533556",
    "lat": 10.23192138994963,
    "lng": 105.39733990726512,
    "bank": "Agribank",
   "name": "Ngân Hàng Nông Nghiệp & Phát Triển Nông Thôn Việt Nam (Agribank) - Pgd Thạnh Mỹ",
    "address": "69HX+67H, QL80, Thị trấn Vĩnh Thạnh, Vĩnh Thạnh, Cần Thơ, Việt Nam",
    "amenity": "atm",
    "raw_tags": {
      "amenity": "atm",
      "brand": "Agribank",
      "brand:wikidata": "Q1924723",
      "name": "Agribank",
      "operator": "Agribank",
      "operator:wikidata": "Q1924723"
    },
    "source": "overpass",
    "updated_at": "2025-11-11T09:50:18.856Z"
  }
]